[{"Schedule Step":"Barge On-Hire","Project Schedule Activity Name":"Barge On-hire Survey","Timestamp":"2027-04-28T00:00:00.000","Location":"Home Port","Latitude":30.074883,"Longitude":-93.722685,"Barge Name":"B01","Barge Name Ext":"Ocean Barge 01","Barge Name Full":"01 - Crowley 455 6"},{"Schedule Step":"Home to KOS D01 - M","Project Schedule Activity Name":"Home to KOS D01 - M","Timestamp":"2027-04-29T00:00:00.000","Location":"Home+1","Latitude":29.049757,"Longitude":-93.14979,"Barge Name":"B01","Barge Name Ext":"Ocean Barge 01","Barge Name Full":"01 - Crowley 455 6"},{"Schedule Step":"Home to KOS D02 - M","Project Schedule Activity Name":"Home to KOS D02 - M","Timestamp":"2027-04-30T00:00:00.000","Location":"Home+2","Latitude":28.451753,"Longitude":-95.193715,"Barge Name":"B01","Barge Name Ext":"Ocean Barge 01","Barge Name Full":"01 - Crowley 455 6"},{"Schedule Step":"Arrive KOS - M","Project Schedule Activity Name":"Barge Transit: Home Port - Ingleside","Timestamp":"2027-05-01T00:00:00.000","Location":"KOS","Latitude":27.85375,"Longitude":-97.23764,"Barge Name":"B01","Barge Name Ext":"Ocean Barge 01","Barge Name Full":"01 - Crowley 455 6"},{"Schedule Step":"Depart KOS - M","Project Schedule Activity Name":"Departure Readiness Checklist","Timestamp":"2027-05-23T00:00:00.000","Location":"KOS","Latitude":27.85375,"Longitude":-97.23764,"Barge Name":"B01","Barge Name Ext":"Ocean Barge 01","Barge Name Full":"01 - Crowley 455 6"},{"Schedule Step":"KOS to Cristobal D01 - M","Project Schedule Activity Name":"KOS to Cristobal D01 - M","Timestamp":"2027-05-24T00:00:00.000","Location":"KOS+1","Latitude":26.487967,"Longitude":-94.04255,"Barge Name":"B01","Barge Name Ext":"Ocean Barge 01","Barge Name Full":"01 - Crowley 455 6"},{"Schedule Step":"KOS to Cristobal D02 - M","Project Schedule Activity Name":"KOS to Cristobal D02 - M","Timestamp":"2027-05-25T00:00:00.000","Location":"KOS+2","Latitude":25.2701,"Longitude":-91.113867,"Barge Name":"B01","Barge Name Ext":"Ocean Barge 01","Barge Name Full":"01 - Crowley 455 6"},{"Schedule Step":"KOS to Cristobal D03 - M","Project Schedule Activity Name":"KOS to Cristobal D03 - M","Timestamp":"2027-05-26T00:00:00.000","Location":"KOS+3","Latitude":24.04595,"Longitude":-88.217917,"Barge Name":"B01","Barge Name Ext":"Ocean Barge 01","Barge Name Full":"01 - Crowley 455 6"},{"Schedule Step":"KOS to Cristobal D04 - M","Project Schedule Activity Name":"KOS to Cristobal D04 - M","Timestamp":"2027-05-27T00:00:00.000","Location":"KOS+4","Latitude":22.332467,"Longitude":-85.676367,"Barge Name":"B01","Barge Name Ext":"Ocean Barge 01","Barge Name Full":"01 - Crowley 455 6"},{"Schedule Step":"KOS to Cristobal D05 - M","Project Schedule Activity Name":"KOS to Cristobal D05 - M","Timestamp":"2027-05-28T00:00:00.000","Location":"KOS+5","Latitude":19.782517,"Longitude":-84.187917,"Barge Name":"B01","Barge Name Ext":"Ocean Barge 01","Barge Name Full":"01 - Crowley 455 6"},{"Schedule Step":"KOS to Cristobal D06 - M","Project Schedule Activity Name":"KOS to Cristobal D06 - M","Timestamp":"2027-05-29T00:00:00.000","Location":"KOS+6","Latitude":17.235517,"Longitude":-82.726133,"Barge Name":"B01","Barge Name Ext":"Ocean Barge 01","Barge Name Full":"01 - Crowley 455 6"},{"Schedule Step":"KOS to Cristobal D07 - M","Project Schedule Activity Name":"KOS to Cristobal D07 - M","Timestamp":"2027-05-30T00:00:00.000","Location":"KOS+7","Latitude":14.621617,"Longitude":-81.423067,"Barge Name":"B01","Barge Name Ext":"Ocean Barge 01","Barge Name Full":"01 - Crowley 455 6"},{"Schedule Step":"KOS to Cristobal D08 - M","Project Schedule Activity Name":"KOS to Cristobal D08 - M","Timestamp":"2027-05-31T00:00:00.000","Location":"KOS+8","Latitude":11.827417,"Longitude":-80.6297,"Barge Name":"B01","Barge Name Ext":"Ocean Barge 01","Barge Name Full":"01 - Crowley 455 6"},{"Schedule Step":"Arrive Cristobal - M","Project Schedule Activity Name":"Transit: Ingleside - Cristobal","Timestamp":"2027-06-01T00:00:00.000","Location":"Panama Canal","Latitude":9.35298,"Longitude":-79.912448,"Barge Name":"B01","Barge Name Ext":"Ocean Barge 01","Barge Name Full":"01 - Crowley 455 6"},{"Schedule Step":"Enter Canal - M","Project Schedule Activity Name":"RBU \/ Barge Prep & Approval","Timestamp":"2027-06-04T00:00:00.000","Location":"Panama Canal","Latitude":9.191525,"Longitude":-79.900219,"Barge Name":"B01","Barge Name Ext":"Ocean Barge 01","Barge Name Full":"01 - Crowley 455 6"},{"Schedule Step":"Arrive Balboa - M","Project Schedule Activity Name":"Canal Transit - Loaded","Timestamp":"2027-06-06T00:00:00.000","Location":"Panama Canal","Latitude":8.951125,"Longitude":-79.572366,"Barge Name":"B01","Barge Name Ext":"Ocean Barge 01","Barge Name Full":"01 - Crowley 455 6"},{"Schedule Step":"Depart Balboa - M","Project Schedule Activity Name":"Pacific Voyage Prep","Timestamp":"2027-06-07T00:00:00.000","Location":"Panama Canal","Latitude":8.951125,"Longitude":-79.572366,"Barge Name":"B01","Barge Name Ext":"Ocean Barge 01","Barge Name Full":"01 - Crowley 455 6"},{"Schedule Step":"Balboa to LA\/LB D01 - M","Project Schedule Activity Name":"Balboa to LA\/LB D01 - M","Timestamp":"2027-06-08T00:00:00.000","Location":"Balboa+1","Latitude":6.642533,"Longitude":-81.358383,"Barge Name":"B01","Barge Name Ext":"Ocean Barge 01","Barge Name Full":"01 - Crowley 455 6"},{"Schedule Step":"Balboa to LA\/LB D02 - M","Project Schedule Activity Name":"Balboa to LA\/LB D02 - M","Timestamp":"2027-06-09T00:00:00.000","Location":"Balboa+2","Latitude":6.6747,"Longitude":-84.276483,"Barge Name":"B01","Barge Name Ext":"Ocean Barge 01","Barge Name Full":"01 - Crowley 455 6"},{"Schedule Step":"Balboa to LA\/LB D03 - M","Project Schedule Activity Name":"Balboa to LA\/LB D03 - M","Timestamp":"2027-06-10T00:00:00.000","Location":"Balboa+3","Latitude":7.61655,"Longitude":-87.059783,"Barge Name":"B01","Barge Name Ext":"Ocean Barge 01","Barge Name Full":"01 - Crowley 455 6"},{"Schedule Step":"Balboa to LA\/LB D04 - M","Project Schedule Activity Name":"Balboa to LA\/LB D04 - M","Timestamp":"2027-06-11T00:00:00.000","Location":"Balboa+4","Latitude":8.552567,"Longitude":-89.830383,"Barge Name":"B01","Barge Name Ext":"Ocean Barge 01","Barge Name Full":"01 - Crowley 455 6"},{"Schedule Step":"Balboa to LA\/LB D05 - M","Project Schedule Activity Name":"Balboa to LA\/LB D05 - M","Timestamp":"2027-06-12T00:00:00.000","Location":"Balboa+5","Latitude":9.49505,"Longitude":-92.6266,"Barge Name":"B01","Barge Name Ext":"Ocean Barge 01","Barge Name Full":"01 - Crowley 455 6"},{"Schedule Step":"Balboa to LA\/LB D06 - M","Project Schedule Activity Name":"Balboa to LA\/LB D06 - M","Timestamp":"2027-06-13T00:00:00.000","Location":"Balboa+6","Latitude":10.431467,"Longitude":-95.412133,"Barge Name":"B01","Barge Name Ext":"Ocean Barge 01","Barge Name Full":"01 - Crowley 455 6"},{"Schedule Step":"Balboa to LA\/LB D07 - M","Project Schedule Activity Name":"Balboa to LA\/LB D07 - M","Timestamp":"2027-06-14T00:00:00.000","Location":"Balboa+7","Latitude":11.37325,"Longitude":-98.227983,"Barge Name":"B01","Barge Name Ext":"Ocean Barge 01","Barge Name Full":"01 - Crowley 455 6"},{"Schedule Step":"Balboa to LA\/LB D08 - M","Project Schedule Activity Name":"Balboa to LA\/LB D08 - M","Timestamp":"2027-06-15T00:00:00.000","Location":"Balboa+8","Latitude":12.467467,"Longitude":-100.970767,"Barge Name":"B01","Barge Name Ext":"Ocean Barge 01","Barge Name Full":"01 - Crowley 455 6"},{"Schedule Step":"Balboa to LA\/LB D09 - M","Project Schedule Activity Name":"Balboa to LA\/LB D09 - M","Timestamp":"2027-06-16T00:00:00.000","Location":"Balboa+9","Latitude":14.425617,"Longitude":-103.195,"Barge Name":"B01","Barge Name Ext":"Ocean Barge 01","Barge Name Full":"01 - Crowley 455 6"},{"Schedule Step":"Balboa to LA\/LB D10 - M","Project Schedule Activity Name":"Balboa to LA\/LB D10 - M","Timestamp":"2027-06-17T00:00:00.000","Location":"Balboa+10","Latitude":16.369233,"Longitude":-105.4275,"Barge Name":"B01","Barge Name Ext":"Ocean Barge 01","Barge Name Full":"01 - Crowley 455 6"},{"Schedule Step":"Balboa to LA\/LB D11 - M","Project Schedule Activity Name":"Balboa to LA\/LB D11 - M","Timestamp":"2027-06-18T00:00:00.000","Location":"Balboa+11","Latitude":18.313083,"Longitude":-107.676583,"Barge Name":"B01","Barge Name Ext":"Ocean Barge 01","Barge Name Full":"01 - Crowley 455 6"},{"Schedule Step":"Balboa to LA\/LB D12 - M","Project Schedule Activity Name":"Balboa to LA\/LB D12 - M","Timestamp":"2027-06-19T00:00:00.000","Location":"Balboa+12","Latitude":20.291617,"Longitude":-109.918317,"Barge Name":"B01","Barge Name Ext":"Ocean Barge 01","Barge Name Full":"01 - Crowley 455 6"},{"Schedule Step":"Balboa to LA\/LB D13 - M","Project Schedule Activity Name":"Balboa to LA\/LB D13 - M","Timestamp":"2027-06-20T00:00:00.000","Location":"Balboa+13","Latitude":22.28785,"Longitude":-112.174467,"Barge Name":"B01","Barge Name Ext":"Ocean Barge 01","Barge Name Full":"01 - Crowley 455 6"},{"Schedule Step":"Balboa to LA\/LB D14 - M","Project Schedule Activity Name":"Balboa to LA\/LB D14 - M","Timestamp":"2027-06-21T00:00:00.000","Location":"Balboa+14","Latitude":24.287033,"Longitude":-114.4627,"Barge Name":"B01","Barge Name Ext":"Ocean Barge 01","Barge Name Full":"01 - Crowley 455 6"},{"Schedule Step":"Balboa to LA\/LB D15 - M","Project Schedule Activity Name":"Balboa to LA\/LB D15 - M","Timestamp":"2027-06-22T00:00:00.000","Location":"Balboa+15","Latitude":26.92425,"Longitude":-115.7958,"Barge Name":"B01","Barge Name Ext":"Ocean Barge 01","Barge Name Full":"01 - Crowley 455 6"},{"Schedule Step":"Balboa to LA\/LB D16 - M","Project Schedule Activity Name":"Balboa to LA\/LB D16 - M","Timestamp":"2027-06-23T00:00:00.000","Location":"Balboa+16","Latitude":29.563867,"Longitude":-117.138633,"Barge Name":"B01","Barge Name Ext":"Ocean Barge 01","Barge Name Full":"01 - Crowley 455 6"},{"Schedule Step":"Balboa to LA\/LB D17 - M","Project Schedule Activity Name":"Balboa to LA\/LB D17 - M","Timestamp":"2027-06-24T00:00:00.000","Location":"Balboa+17","Latitude":31.6276255,"Longitude":-117.699541,"Barge Name":"B01","Barge Name Ext":"Ocean Barge 01","Barge Name Full":"01 - Crowley 455 6"},{"Schedule Step":"Arrive LA\/LB - M","Project Schedule Activity Name":"Transit: Balboa - Los Angeles","Timestamp":"2027-06-25T00:00:00.000","Location":"Port Stop","Latitude":33.691384,"Longitude":-118.260449,"Barge Name":"B01","Barge Name Ext":"Ocean Barge 01","Barge Name Full":"01 - Crowley 455 6"},{"Schedule Step":"Depart LA\/LB - M","Project Schedule Activity Name":"Port Call Los Angeles","Timestamp":"2027-06-26T00:00:00.000","Location":"Port Stop","Latitude":33.691384,"Longitude":-118.260449,"Barge Name":"B01","Barge Name Ext":"Ocean Barge 01","Barge Name Full":"01 - Crowley 455 6"},{"Schedule Step":"LA\/LB to Kodiak D01 - M","Project Schedule Activity Name":"LA\/LB to Kodiak D01 - M","Timestamp":"2027-06-27T00:00:00.000","Location":"LA\/LB_M+1","Latitude":34.61135,"Longitude":-121.593833,"Barge Name":"B01","Barge Name Ext":"Ocean Barge 01","Barge Name Full":"01 - Crowley 455 6"},{"Schedule Step":"LA\/LB to Kodiak D02 - M","Project Schedule Activity Name":"LA\/LB to Kodiak D02 - M","Timestamp":"2027-06-28T00:00:00.000","Location":"LA\/LB_M+2","Latitude":36.962267,"Longitude":-123.698367,"Barge Name":"B01","Barge Name Ext":"Ocean Barge 01","Barge Name Full":"01 - Crowley 455 6"},{"Schedule Step":"LA\/LB to Kodiak D03 - M","Project Schedule Activity Name":"LA\/LB to Kodiak D03 - M","Timestamp":"2027-06-29T00:00:00.000","Location":"LA\/LB_M+3","Latitude":39.636783,"Longitude":-125.099667,"Barge Name":"B01","Barge Name Ext":"Ocean Barge 01","Barge Name Full":"01 - Crowley 455 6"},{"Schedule Step":"LA\/LB to Kodiak D04 - M","Project Schedule Activity Name":"LA\/LB to Kodiak D04 - M","Timestamp":"2027-06-30T00:00:00.000","Location":"LA\/LB_M+4","Latitude":42.441233,"Longitude":-126.10735,"Barge Name":"B01","Barge Name Ext":"Ocean Barge 01","Barge Name Full":"01 - Crowley 455 6"},{"Schedule Step":"LA\/LB to Kodiak D05 - M","Project Schedule Activity Name":"LA\/LB to Kodiak D05 - M","Timestamp":"2027-07-01T00:00:00.000","Location":"LA\/LB_M+5","Latitude":45.340383,"Longitude":-126.091517,"Barge Name":"B01","Barge Name Ext":"Ocean Barge 01","Barge Name Full":"01 - Crowley 455 6"},{"Schedule Step":"LA\/LB to Kodiak D06 - M","Project Schedule Activity Name":"LA\/LB to Kodiak D06 - M","Timestamp":"2027-07-02T00:00:00.000","Location":"LA\/LB_M+6","Latitude":48.238117,"Longitude":-126.152733,"Barge Name":"B01","Barge Name Ext":"Ocean Barge 01","Barge Name Full":"01 - Crowley 455 6"},{"Schedule Step":"LA\/LB to Kodiak D07 - M","Project Schedule Activity Name":"LA\/LB to Kodiak D07 - M","Timestamp":"2027-07-03T00:00:00.000","Location":"LA\/LB_M+7","Latitude":50.2051,"Longitude":-129.413317,"Barge Name":"B01","Barge Name Ext":"Ocean Barge 01","Barge Name Full":"01 - Crowley 455 6"},{"Schedule Step":"LA\/LB to Kodiak D08 - M","Project Schedule Activity Name":"LA\/LB to Kodiak D08 - M","Timestamp":"2027-07-04T00:00:00.000","Location":"LA\/LB_M+8","Latitude":52.241167,"Longitude":-132.7071,"Barge Name":"B01","Barge Name Ext":"Ocean Barge 01","Barge Name Full":"01 - Crowley 455 6"},{"Schedule Step":"LA\/LB to Kodiak D09 - M","Project Schedule Activity Name":"LA\/LB to Kodiak D09 - M","Timestamp":"2027-07-05T00:00:00.000","Location":"LA\/LB_M+9","Latitude":54.77765,"Longitude":-135.057567,"Barge Name":"B01","Barge Name Ext":"Ocean Barge 01","Barge Name Full":"01 - Crowley 455 6"},{"Schedule Step":"LA\/LB to Kodiak D10 - M","Project Schedule Activity Name":"LA\/LB to Kodiak D10 - M","Timestamp":"2027-07-06T00:00:00.000","Location":"LA\/LB_M+10","Latitude":57.4434,"Longitude":-137.1009,"Barge Name":"B01","Barge Name Ext":"Ocean Barge 01","Barge Name Full":"01 - Crowley 455 6"},{"Schedule Step":"LA\/LB to Kodiak D11 - M","Project Schedule Activity Name":"LA\/LB to Kodiak D11 - M","Timestamp":"2027-07-07T00:00:00.000","Location":"LA\/LB_M+11","Latitude":59.0849,"Longitude":-141.642517,"Barge Name":"B01","Barge Name Ext":"Ocean Barge 01","Barge Name Full":"01 - Crowley 455 6"},{"Schedule Step":"LA\/LB to Kodiak D12 - M","Project Schedule Activity Name":"LA\/LB to Kodiak D12 - M","Timestamp":"2027-07-08T00:00:00.000","Location":"LA\/LB_M+12","Latitude":58.704317,"Longitude":-147.1995,"Barge Name":"B01","Barge Name Ext":"Ocean Barge 01","Barge Name Full":"01 - Crowley 455 6"},{"Schedule Step":"Arrive Kodiak - M","Project Schedule Activity Name":"Transit: Los Angeles - Kodiak","Timestamp":"2027-07-09T00:00:00.000","Location":"Port Stop","Latitude":57.783058,"Longitude":-152.417202,"Barge Name":"B01","Barge Name Ext":"Ocean Barge 01","Barge Name Full":"01 - Crowley 455 6"},{"Schedule Step":"Depart Kodiak - M","Project Schedule Activity Name":"Port Call Kodiak","Timestamp":"2027-07-13T00:00:00.000","Location":"Port Stop","Latitude":57.783058,"Longitude":-152.417202,"Barge Name":"B01","Barge Name Ext":"Ocean Barge 01","Barge Name Full":"01 - Crowley 455 6"},{"Schedule Step":"Kodiak to Oliktok D01 - M","Project Schedule Activity Name":"Kodiak to Oliktok D01 - M","Timestamp":"2027-07-14T00:00:00.000","Location":"Kodiak_M+1","Latitude":55.4363,"Longitude":-155.372817,"Barge Name":"B01","Barge Name Ext":"Ocean Barge 01","Barge Name Full":"01 - Crowley 455 6"},{"Schedule Step":"Kodiak to Oliktok D02 - M","Project Schedule Activity Name":"Kodiak to Oliktok D02 - M","Timestamp":"2027-07-15T00:00:00.000","Location":"Kodiak_M+2","Latitude":54.253167,"Longitude":-159.965683,"Barge Name":"B01","Barge Name Ext":"Ocean Barge 01","Barge Name Full":"01 - Crowley 455 6"},{"Schedule Step":"Kodiak to Oliktok D03 - M","Project Schedule Activity Name":"Kodiak to Oliktok D03 - M","Timestamp":"2027-07-16T00:00:00.000","Location":"Kodiak_M+3","Latitude":54.316433,"Longitude":-164.931783,"Barge Name":"B01","Barge Name Ext":"Ocean Barge 01","Barge Name Full":"01 - Crowley 455 6"},{"Schedule Step":"Kodiak to Oliktok D04 - M","Project Schedule Activity Name":"Kodiak to Oliktok D04 - M","Timestamp":"2027-07-17T00:00:00.000","Location":"Kodiak_M+4","Latitude":56.464033,"Longitude":-168.361917,"Barge Name":"B01","Barge Name Ext":"Ocean Barge 01","Barge Name Full":"01 - Crowley 455 6"},{"Schedule Step":"Kodiak to Oliktok D05 - M","Project Schedule Activity Name":"Kodiak to Oliktok D05 - M","Timestamp":"2027-07-18T00:00:00.000","Location":"Kodiak_M+5","Latitude":59.363883,"Longitude":-168.364083,"Barge Name":"B01","Barge Name Ext":"Ocean Barge 01","Barge Name Full":"01 - Crowley 455 6"},{"Schedule Step":"Kodiak to Oliktok D06 - M","Project Schedule Activity Name":"Kodiak to Oliktok D06 - M","Timestamp":"2027-07-19T00:00:00.000","Location":"Kodiak_M+6","Latitude":62.210817,"Longitude":-167.239983,"Barge Name":"B01","Barge Name Ext":"Ocean Barge 01","Barge Name Full":"01 - Crowley 455 6"},{"Schedule Step":"Kodiak to Oliktok D07 - M","Project Schedule Activity Name":"Kodiak to Oliktok D07 - M","Timestamp":"2027-07-20T00:00:00.000","Location":"Kodiak_M+7","Latitude":65.230432,"Longitude":-166.673828,"Barge Name":"B01","Barge Name Ext":"Ocean Barge 01","Barge Name Full":"01 - Crowley 455 6"},{"Schedule Step":"Kodiak to Oliktok D08 - M","Project Schedule Activity Name":"Kodiak to Oliktok D08 - M","Timestamp":"2027-07-21T00:00:00.000","Location":"Kodiak_M+8","Latitude":67.016189,"Longitude":-167.696643,"Barge Name":"B01","Barge Name Ext":"Ocean Barge 01","Barge Name Full":"01 - Crowley 455 6"},{"Schedule Step":"Kodiak to Oliktok D09 - M","Project Schedule Activity Name":"Kodiak to Oliktok D09 - M","Timestamp":"2027-07-22T00:00:00.000","Location":"Kodiak_M+9","Latitude":68.732779,"Longitude":-167.491304,"Barge Name":"B01","Barge Name Ext":"Ocean Barge 01","Barge Name Full":"01 - Crowley 455 6"},{"Schedule Step":"Kodiak to Oliktok D10 - M","Project Schedule Activity Name":"Kodiak to Oliktok D10 - M","Timestamp":"2027-07-23T00:00:00.000","Location":"Kodiak_M+10","Latitude":70.312416,"Longitude":-164.85421,"Barge Name":"B01","Barge Name Ext":"Ocean Barge 01","Barge Name Full":"01 - Crowley 455 6"},{"Schedule Step":"Kodiak to Oliktok D11 - M","Project Schedule Activity Name":"Kodiak to Oliktok D11 - M","Timestamp":"2027-07-24T00:00:00.000","Location":"Kodiak_M+11","Latitude":71.150501,"Longitude":-160.166224,"Barge Name":"B01","Barge Name Ext":"Ocean Barge 01","Barge Name Full":"01 - Crowley 455 6"},{"Schedule Step":"Kodiak to Oliktok D12 - M","Project Schedule Activity Name":"Kodiak to Oliktok D12 - M","Timestamp":"2027-07-25T00:00:00.000","Location":"Kodiak_M+12","Latitude":71.492177,"Longitude":-154.876693,"Barge Name":"B01","Barge Name Ext":"Ocean Barge 01","Barge Name Full":"01 - Crowley 455 6"},{"Schedule Step":"Arrive Oliktok - M","Project Schedule Activity Name":"Transit: Kodiak - Oliktok","Timestamp":"2027-07-26T00:00:00.000","Location":"North Slope","Latitude":70.577213,"Longitude":-149.981318,"Barge Name":"B01","Barge Name Ext":"Ocean Barge 01","Barge Name Full":"01 - Crowley 455 6"},{"Schedule Step":"Handover to SDT - M","Project Schedule Activity Name":"Adjustment for Offload","Timestamp":"2027-08-04T00:00:00.000","Location":"North Slope","Latitude":70.512316,"Longitude":-149.866678,"Barge Name":"B01","Barge Name Ext":"Ocean Barge 01","Barge Name Full":"01 - Crowley 455 6"},{"Schedule Step":"Handover to Ocean Tug - D","Project Schedule Activity Name":"Offload Operations","Timestamp":"2027-08-06T00:00:00.000","Location":"North Slope","Latitude":70.577213,"Longitude":-149.981318,"Barge Name":"B01","Barge Name Ext":"Ocean Barge 01","Barge Name Full":"01 - Crowley 455 6"},{"Schedule Step":"Depart Oliktok - D","Project Schedule Activity Name":"Offload Operations","Timestamp":"2027-08-06T00:00:00.000","Location":"North Slope","Latitude":70.577213,"Longitude":-149.981318,"Barge Name":"B01","Barge Name Ext":"Ocean Barge 01","Barge Name Full":"01 - Crowley 455 6"},{"Schedule Step":"Oliktok to Kodiak D01 - D","Project Schedule Activity Name":"Oliktok to Kodiak D01 - D","Timestamp":"2027-08-07T00:00:00.000","Location":"Oliktok+1","Latitude":71.492177,"Longitude":-154.876693,"Barge Name":"B01","Barge Name Ext":"Ocean Barge 01","Barge Name Full":"01 - Crowley 455 6"},{"Schedule Step":"Oliktok to Kodiak D02 - D","Project Schedule Activity Name":"Oliktok to Kodiak D02 - D","Timestamp":"2027-08-08T00:00:00.000","Location":"Oliktok+2","Latitude":71.150501,"Longitude":-160.166224,"Barge Name":"B01","Barge Name Ext":"Ocean Barge 01","Barge Name Full":"01 - Crowley 455 6"},{"Schedule Step":"Oliktok to Kodiak D03 - D","Project Schedule Activity Name":"Oliktok to Kodiak D03 - D","Timestamp":"2027-08-09T00:00:00.000","Location":"Oliktok+3","Latitude":70.312416,"Longitude":-164.85421,"Barge Name":"B01","Barge Name Ext":"Ocean Barge 01","Barge Name Full":"01 - Crowley 455 6"},{"Schedule Step":"Oliktok to Kodiak D04 - D","Project Schedule Activity Name":"Oliktok to Kodiak D04 - D","Timestamp":"2027-08-10T00:00:00.000","Location":"Oliktok+4","Latitude":68.732779,"Longitude":-167.491304,"Barge Name":"B01","Barge Name Ext":"Ocean Barge 01","Barge Name Full":"01 - Crowley 455 6"},{"Schedule Step":"Oliktok to Kodiak D05 - D","Project Schedule Activity Name":"Oliktok to Kodiak D05 - D","Timestamp":"2027-08-11T00:00:00.000","Location":"Oliktok+5","Latitude":67.016189,"Longitude":-167.696643,"Barge Name":"B01","Barge Name Ext":"Ocean Barge 01","Barge Name Full":"01 - Crowley 455 6"},{"Schedule Step":"Oliktok to Kodiak D06 - D","Project Schedule Activity Name":"Oliktok to Kodiak D06 - D","Timestamp":"2027-08-12T00:00:00.000","Location":"Oliktok+6","Latitude":64.613678,"Longitude":-167.448124,"Barge Name":"B01","Barge Name Ext":"Ocean Barge 01","Barge Name Full":"01 - Crowley 455 6"},{"Schedule Step":"Oliktok to Kodiak D07 - D","Project Schedule Activity Name":"Oliktok to Kodiak D07 - D","Timestamp":"2027-08-13T00:00:00.000","Location":"Oliktok+7","Latitude":62.210817,"Longitude":-167.239983,"Barge Name":"B01","Barge Name Ext":"Ocean Barge 01","Barge Name Full":"01 - Crowley 455 6"},{"Schedule Step":"Oliktok to Kodiak D08 - D","Project Schedule Activity Name":"Oliktok to Kodiak D08 - D","Timestamp":"2027-08-14T00:00:00.000","Location":"Oliktok+8","Latitude":59.363883,"Longitude":-168.364083,"Barge Name":"B01","Barge Name Ext":"Ocean Barge 01","Barge Name Full":"01 - Crowley 455 6"},{"Schedule Step":"Oliktok to Kodiak D09 - D","Project Schedule Activity Name":"Oliktok to Kodiak D09 - D","Timestamp":"2027-08-15T00:00:00.000","Location":"Oliktok+9","Latitude":56.464033,"Longitude":-168.361917,"Barge Name":"B01","Barge Name Ext":"Ocean Barge 01","Barge Name Full":"01 - Crowley 455 6"},{"Schedule Step":"Oliktok to Kodiak D10 - D","Project Schedule Activity Name":"Oliktok to Kodiak D10 - D","Timestamp":"2027-08-16T00:00:00.000","Location":"Oliktok+10","Latitude":54.316433,"Longitude":-164.931783,"Barge Name":"B01","Barge Name Ext":"Ocean Barge 01","Barge Name Full":"01 - Crowley 455 6"},{"Schedule Step":"Arrive Kodiak - D","Project Schedule Activity Name":"Transit: Oliktok - Kodiak","Timestamp":"2027-08-17T00:00:00.000","Location":"Port Stop","Latitude":57.783058,"Longitude":-152.417202,"Barge Name":"B01","Barge Name Ext":"Ocean Barge 01","Barge Name Full":"01 - Crowley 455 6"},{"Schedule Step":"Depart Kodiak - D","Project Schedule Activity Name":"Standby Kodiak","Timestamp":"2027-08-21T00:00:00.000","Location":"Port Stop","Latitude":57.783058,"Longitude":-152.417202,"Barge Name":"B01","Barge Name Ext":"Ocean Barge 01","Barge Name Full":"01 - Crowley 455 6"},{"Schedule Step":"Kodiak to LA\/LB D01 - D","Project Schedule Activity Name":"Kodiak to LA\/LB D01 - D","Timestamp":"2027-08-22T00:00:00.000","Location":"Kodiak_D+1","Latitude":58.704317,"Longitude":-147.1995,"Barge Name":"B01","Barge Name Ext":"Ocean Barge 01","Barge Name Full":"01 - Crowley 455 6"},{"Schedule Step":"Kodiak to LA\/LB D02 - D","Project Schedule Activity Name":"Kodiak to LA\/LB D02 - D","Timestamp":"2027-08-23T00:00:00.000","Location":"Kodiak_D+2","Latitude":59.0849,"Longitude":-141.642517,"Barge Name":"B01","Barge Name Ext":"Ocean Barge 01","Barge Name Full":"01 - Crowley 455 6"},{"Schedule Step":"Kodiak to LA\/LB D03 - D","Project Schedule Activity Name":"Kodiak to LA\/LB D03 - D","Timestamp":"2027-08-24T00:00:00.000","Location":"Kodiak_D+3","Latitude":57.4434,"Longitude":-137.1009,"Barge Name":"B01","Barge Name Ext":"Ocean Barge 01","Barge Name Full":"01 - Crowley 455 6"},{"Schedule Step":"Kodiak to LA\/LB D04 - D","Project Schedule Activity Name":"Kodiak to LA\/LB D04 - D","Timestamp":"2027-08-25T00:00:00.000","Location":"Kodiak_D+4","Latitude":54.77765,"Longitude":-135.057567,"Barge Name":"B01","Barge Name Ext":"Ocean Barge 01","Barge Name Full":"01 - Crowley 455 6"},{"Schedule Step":"Kodiak to LA\/LB D05 - D","Project Schedule Activity Name":"Kodiak to LA\/LB D05 - D","Timestamp":"2027-08-26T00:00:00.000","Location":"Kodiak_D+5","Latitude":52.241167,"Longitude":-132.7071,"Barge Name":"B01","Barge Name Ext":"Ocean Barge 01","Barge Name Full":"01 - Crowley 455 6"},{"Schedule Step":"Kodiak to LA\/LB D06 - D","Project Schedule Activity Name":"Kodiak to LA\/LB D06 - D","Timestamp":"2027-08-27T00:00:00.000","Location":"Kodiak_D+6","Latitude":50.2051,"Longitude":-129.413317,"Barge Name":"B01","Barge Name Ext":"Ocean Barge 01","Barge Name Full":"01 - Crowley 455 6"},{"Schedule Step":"Kodiak to LA\/LB D07 - D","Project Schedule Activity Name":"Kodiak to LA\/LB D07 - D","Timestamp":"2027-08-28T00:00:00.000","Location":"Kodiak_D+7","Latitude":48.238117,"Longitude":-126.152733,"Barge Name":"B01","Barge Name Ext":"Ocean Barge 01","Barge Name Full":"01 - Crowley 455 6"},{"Schedule Step":"Kodiak to LA\/LB D08 - D","Project Schedule Activity Name":"Kodiak to LA\/LB D08 - D","Timestamp":"2027-08-29T00:00:00.000","Location":"Kodiak_D+8","Latitude":45.340383,"Longitude":-126.091517,"Barge Name":"B01","Barge Name Ext":"Ocean Barge 01","Barge Name Full":"01 - Crowley 455 6"},{"Schedule Step":"Kodiak to LA\/LB D09 - D","Project Schedule Activity Name":"Kodiak to LA\/LB D09 - D","Timestamp":"2027-08-30T00:00:00.000","Location":"Kodiak_D+9","Latitude":42.441233,"Longitude":-126.10735,"Barge Name":"B01","Barge Name Ext":"Ocean Barge 01","Barge Name Full":"01 - Crowley 455 6"},{"Schedule Step":"Kodiak to LA\/LB D10 - D","Project Schedule Activity Name":"Kodiak to LA\/LB D10 - D","Timestamp":"2027-08-31T00:00:00.000","Location":"Kodiak_D+10","Latitude":39.636783,"Longitude":-125.099667,"Barge Name":"B01","Barge Name Ext":"Ocean Barge 01","Barge Name Full":"01 - Crowley 455 6"},{"Schedule Step":"Kodiak to LA\/LB D11 - D","Project Schedule Activity Name":"Kodiak to LA\/LB D11 - D","Timestamp":"2027-09-01T00:00:00.000","Location":"Kodiak_D+11","Latitude":36.962267,"Longitude":-123.698367,"Barge Name":"B01","Barge Name Ext":"Ocean Barge 01","Barge Name Full":"01 - Crowley 455 6"},{"Schedule Step":"Arrive LA\/LB - D","Project Schedule Activity Name":"Transit: Kodiak - Los Angeles","Timestamp":"2027-09-02T00:00:00.000","Location":"Port Stop","Latitude":33.691384,"Longitude":-118.260449,"Barge Name":"B01","Barge Name Ext":"Ocean Barge 01","Barge Name Full":"01 - Crowley 455 6"},{"Schedule Step":"Depart LA\/LB - D","Project Schedule Activity Name":"Demob Port Call Los Angeles","Timestamp":"2027-09-03T00:00:00.000","Location":"Port Stop","Latitude":33.691384,"Longitude":-118.260449,"Barge Name":"B01","Barge Name Ext":"Ocean Barge 01","Barge Name Full":"01 - Crowley 455 6"},{"Schedule Step":"LA\/LB to Balboa D01 - D","Project Schedule Activity Name":"LA\/LB to Balboa D01 - D","Timestamp":"2027-09-04T00:00:00.000","Location":"LA\/LB_D+1","Latitude":29.563867,"Longitude":-117.138633,"Barge Name":"B01","Barge Name Ext":"Ocean Barge 01","Barge Name Full":"01 - Crowley 455 6"},{"Schedule Step":"LA\/LB to Balboa D02 - D","Project Schedule Activity Name":"LA\/LB to Balboa D02 - D","Timestamp":"2027-09-05T00:00:00.000","Location":"LA\/LB_D+2","Latitude":26.92425,"Longitude":-115.7958,"Barge Name":"B01","Barge Name Ext":"Ocean Barge 01","Barge Name Full":"01 - Crowley 455 6"},{"Schedule Step":"LA\/LB to Balboa D03 - D","Project Schedule Activity Name":"LA\/LB to Balboa D03 - D","Timestamp":"2027-09-06T00:00:00.000","Location":"LA\/LB_D+3","Latitude":24.287033,"Longitude":-114.4627,"Barge Name":"B01","Barge Name Ext":"Ocean Barge 01","Barge Name Full":"01 - Crowley 455 6"},{"Schedule Step":"LA\/LB to Balboa D04 - D","Project Schedule Activity Name":"LA\/LB to Balboa D04 - D","Timestamp":"2027-09-07T00:00:00.000","Location":"LA\/LB_D+4","Latitude":22.28785,"Longitude":-112.174467,"Barge Name":"B01","Barge Name Ext":"Ocean Barge 01","Barge Name Full":"01 - Crowley 455 6"},{"Schedule Step":"LA\/LB to Balboa D05 - D","Project Schedule Activity Name":"LA\/LB to Balboa D05 - D","Timestamp":"2027-09-08T00:00:00.000","Location":"LA\/LB_D+5","Latitude":20.291617,"Longitude":-109.918317,"Barge Name":"B01","Barge Name Ext":"Ocean Barge 01","Barge Name Full":"01 - Crowley 455 6"},{"Schedule Step":"LA\/LB to Balboa D06 - D","Project Schedule Activity Name":"LA\/LB to Balboa D06 - D","Timestamp":"2027-09-09T00:00:00.000","Location":"LA\/LB_D+6","Latitude":18.313083,"Longitude":-107.676583,"Barge Name":"B01","Barge Name Ext":"Ocean Barge 01","Barge Name Full":"01 - Crowley 455 6"},{"Schedule Step":"LA\/LB to Balboa D07 - D","Project Schedule Activity Name":"LA\/LB to Balboa D07 - D","Timestamp":"2027-09-10T00:00:00.000","Location":"LA\/LB_D+7","Latitude":16.369233,"Longitude":-105.4275,"Barge Name":"B01","Barge Name Ext":"Ocean Barge 01","Barge Name Full":"01 - Crowley 455 6"},{"Schedule Step":"LA\/LB to Balboa D08 - D","Project Schedule Activity Name":"LA\/LB to Balboa D08 - D","Timestamp":"2027-09-11T00:00:00.000","Location":"LA\/LB_D+8","Latitude":14.425617,"Longitude":-103.195,"Barge Name":"B01","Barge Name Ext":"Ocean Barge 01","Barge Name Full":"01 - Crowley 455 6"},{"Schedule Step":"LA\/LB to Balboa D09 - D","Project Schedule Activity Name":"LA\/LB to Balboa D09 - D","Timestamp":"2027-09-12T00:00:00.000","Location":"LA\/LB_D+9","Latitude":12.467467,"Longitude":-100.970767,"Barge Name":"B01","Barge Name Ext":"Ocean Barge 01","Barge Name Full":"01 - Crowley 455 6"},{"Schedule Step":"LA\/LB to Balboa D10 - D","Project Schedule Activity Name":"LA\/LB to Balboa D10 - D","Timestamp":"2027-09-13T00:00:00.000","Location":"LA\/LB_D+10","Latitude":11.37325,"Longitude":-98.227983,"Barge Name":"B01","Barge Name Ext":"Ocean Barge 01","Barge Name Full":"01 - Crowley 455 6"},{"Schedule Step":"LA\/LB to Balboa D11 - D","Project Schedule Activity Name":"LA\/LB to Balboa D11 - D","Timestamp":"2027-09-14T00:00:00.000","Location":"LA\/LB_D+11","Latitude":10.431467,"Longitude":-95.412133,"Barge Name":"B01","Barge Name Ext":"Ocean Barge 01","Barge Name Full":"01 - Crowley 455 6"},{"Schedule Step":"LA\/LB to Balboa D12 - D","Project Schedule Activity Name":"LA\/LB to Balboa D12 - D","Timestamp":"2027-09-15T00:00:00.000","Location":"LA\/LB_D+12","Latitude":9.49505,"Longitude":-92.6266,"Barge Name":"B01","Barge Name Ext":"Ocean Barge 01","Barge Name Full":"01 - Crowley 455 6"},{"Schedule Step":"LA\/LB to Balboa D13 - D","Project Schedule Activity Name":"LA\/LB to Balboa D13 - D","Timestamp":"2027-09-16T00:00:00.000","Location":"LA\/LB_D+13","Latitude":8.552567,"Longitude":-89.830383,"Barge Name":"B01","Barge Name Ext":"Ocean Barge 01","Barge Name Full":"01 - Crowley 455 6"},{"Schedule Step":"LA\/LB to Balboa D14 - D","Project Schedule Activity Name":"LA\/LB to Balboa D14 - D","Timestamp":"2027-09-17T00:00:00.000","Location":"LA\/LB_D+14","Latitude":7.61655,"Longitude":-87.059783,"Barge Name":"B01","Barge Name Ext":"Ocean Barge 01","Barge Name Full":"01 - Crowley 455 6"},{"Schedule Step":"LA\/LB to Balboa D15 - D","Project Schedule Activity Name":"LA\/LB to Balboa D15 - D","Timestamp":"2027-09-18T00:00:00.000","Location":"LA\/LB_D+15","Latitude":6.6747,"Longitude":-84.276483,"Barge Name":"B01","Barge Name Ext":"Ocean Barge 01","Barge Name Full":"01 - Crowley 455 6"},{"Schedule Step":"Arrive Balboa - D","Project Schedule Activity Name":"Transit: Los Angeles - Balboa","Timestamp":"2027-09-19T00:00:00.000","Location":"Panama Canal","Latitude":8.951125,"Longitude":-79.572366,"Barge Name":"B01","Barge Name Ext":"Ocean Barge 01","Barge Name Full":"01 - Crowley 455 6"},{"Schedule Step":"Enter Canal - D","Project Schedule Activity Name":"Barge Prep & Approval - Lite","Timestamp":"2027-09-21T00:00:00.000","Location":"Panama Canal","Latitude":9.191525,"Longitude":-79.900219,"Barge Name":"B01","Barge Name Ext":"Ocean Barge 01","Barge Name Full":"01 - Crowley 455 6"},{"Schedule Step":"Arrive Cristobal - D","Project Schedule Activity Name":"Canal Transit - Lite","Timestamp":"2027-09-23T00:00:00.000","Location":"Panama Canal","Latitude":9.35298,"Longitude":-79.912448,"Barge Name":"B01","Barge Name Ext":"Ocean Barge 01","Barge Name Full":"01 - Crowley 455 6"},{"Schedule Step":"Depart Cristobal - D","Project Schedule Activity Name":"Canal Transit - Lite","Timestamp":"2027-09-23T00:00:00.000","Location":"Panama Canal","Latitude":9.35298,"Longitude":-79.912448,"Barge Name":"B01","Barge Name Ext":"Ocean Barge 01","Barge Name Full":"01 - Crowley 455 6"},{"Schedule Step":"Cristobal to SY D01 - D","Project Schedule Activity Name":"Cristobal to SY D01 - D","Timestamp":"2027-09-24T00:00:00.000","Location":"Cristobal+1","Latitude":11.827417,"Longitude":-80.6297,"Barge Name":"B01","Barge Name Ext":"Ocean Barge 01","Barge Name Full":"01 - Crowley 455 6"},{"Schedule Step":"Cristobal to SY D02 - D","Project Schedule Activity Name":"Cristobal to SY D02 - D","Timestamp":"2027-09-25T00:00:00.000","Location":"Cristobal+2","Latitude":14.621617,"Longitude":-81.423067,"Barge Name":"B01","Barge Name Ext":"Ocean Barge 01","Barge Name Full":"01 - Crowley 455 6"},{"Schedule Step":"Cristobal to SY D03 - D","Project Schedule Activity Name":"Cristobal to SY D03 - D","Timestamp":"2027-09-26T00:00:00.000","Location":"Cristobal+3","Latitude":17.235517,"Longitude":-82.726133,"Barge Name":"B01","Barge Name Ext":"Ocean Barge 01","Barge Name Full":"01 - Crowley 455 6"},{"Schedule Step":"Cristobal to SY D04 - D","Project Schedule Activity Name":"Cristobal to SY D04 - D","Timestamp":"2027-09-27T00:00:00.000","Location":"Cristobal+4","Latitude":19.782517,"Longitude":-84.187917,"Barge Name":"B01","Barge Name Ext":"Ocean Barge 01","Barge Name Full":"01 - Crowley 455 6"},{"Schedule Step":"Cristobal to SY D05 - D","Project Schedule Activity Name":"Cristobal to SY D05 - D","Timestamp":"2027-09-28T00:00:00.000","Location":"Cristobal+5","Latitude":22.332467,"Longitude":-85.676367,"Barge Name":"B01","Barge Name Ext":"Ocean Barge 01","Barge Name Full":"01 - Crowley 455 6"},{"Schedule Step":"Cristobal to SY D06 - D","Project Schedule Activity Name":"Cristobal to SY D06 - D","Timestamp":"2027-09-29T00:00:00.000","Location":"Cristobal+6","Latitude":24.2666225,"Longitude":-87.6866605,"Barge Name":"B01","Barge Name Ext":"Ocean Barge 01","Barge Name Full":"01 - Crowley 455 6"},{"Schedule Step":"Cristobal to SY D07 - D","Project Schedule Activity Name":"Cristobal to SY D07 - D","Timestamp":"2027-09-30T00:00:00.000","Location":"Cristobal+7","Latitude":26.200778,"Longitude":-89.696954,"Barge Name":"B01","Barge Name Ext":"Ocean Barge 01","Barge Name Full":"01 - Crowley 455 6"},{"Schedule Step":"Arrive Shipyard - D","Project Schedule Activity Name":"Arrive at Demob Shipyard","Timestamp":"2027-10-01T00:00:00.000","Location":"Shipyard","Latitude":27.85375,"Longitude":-97.23764,"Barge Name":"B01","Barge Name Ext":"Ocean Barge 01","Barge Name Full":"01 - Crowley 455 6"},{"Schedule Step":"Depart Shipyard - D","Project Schedule Activity Name":"Barge Clean-Off","Timestamp":"2027-10-11T00:00:00.000","Location":"Shipyard","Latitude":27.85375,"Longitude":-97.23764,"Barge Name":"B01","Barge Name Ext":"Ocean Barge 01","Barge Name Full":"01 - Crowley 455 6"},{"Schedule Step":"Arrive Home Port - D","Project Schedule Activity Name":"Transit: Demob Shipyard - Home Port","Timestamp":"2027-10-12T00:00:00.000","Location":"Home Port","Latitude":30.074883,"Longitude":-93.722685,"Barge Name":"B01","Barge Name Ext":"Ocean Barge 01","Barge Name Full":"01 - Crowley 455 6"},{"Schedule Step":"Off-Hire","Project Schedule Activity Name":"Barge Off-hire Survey","Timestamp":"2027-10-13T00:00:00.000","Location":null,"Latitude":0.0,"Longitude":0.0,"Barge Name":"B01","Barge Name Ext":"Ocean Barge 01","Barge Name Full":"01 - Crowley 455 6"},{"Schedule Step":"Barge On-Hire","Project Schedule Activity Name":"Barge On-hire Survey","Timestamp":"2027-04-28T00:00:00.000","Location":"Home Port","Latitude":30.074883,"Longitude":-93.722685,"Barge Name":"B02","Barge Name Ext":"Ocean Barge 02","Barge Name Full":"02 - Crowley 455 4"},{"Schedule Step":"Home to KOS D01 - M","Project Schedule Activity Name":"Home to KOS D01 - M","Timestamp":"2027-04-29T00:00:00.000","Location":"Home+1","Latitude":29.049757,"Longitude":-93.14979,"Barge Name":"B02","Barge Name Ext":"Ocean Barge 02","Barge Name Full":"02 - Crowley 455 4"},{"Schedule Step":"Home to KOS D02 - M","Project Schedule Activity Name":"Home to KOS D02 - M","Timestamp":"2027-04-30T00:00:00.000","Location":"Home+2","Latitude":28.451753,"Longitude":-95.193715,"Barge Name":"B02","Barge Name Ext":"Ocean Barge 02","Barge Name Full":"02 - Crowley 455 4"},{"Schedule Step":"Arrive KOS - M","Project Schedule Activity Name":"Barge Transit: Home Port - Ingleside","Timestamp":"2027-05-01T00:00:00.000","Location":"KOS","Latitude":27.85375,"Longitude":-97.23764,"Barge Name":"B02","Barge Name Ext":"Ocean Barge 02","Barge Name Full":"02 - Crowley 455 4"},{"Schedule Step":"Depart KOS - M","Project Schedule Activity Name":"Departure Readiness Checklist","Timestamp":"2027-05-23T00:00:00.000","Location":"KOS","Latitude":27.85375,"Longitude":-97.23764,"Barge Name":"B02","Barge Name Ext":"Ocean Barge 02","Barge Name Full":"02 - Crowley 455 4"},{"Schedule Step":"KOS to Cristobal D01 - M","Project Schedule Activity Name":"KOS to Cristobal D01 - M","Timestamp":"2027-05-24T00:00:00.000","Location":"KOS+1","Latitude":26.487967,"Longitude":-94.04255,"Barge Name":"B02","Barge Name Ext":"Ocean Barge 02","Barge Name Full":"02 - Crowley 455 4"},{"Schedule Step":"KOS to Cristobal D02 - M","Project Schedule Activity Name":"KOS to Cristobal D02 - M","Timestamp":"2027-05-25T00:00:00.000","Location":"KOS+2","Latitude":25.2701,"Longitude":-91.113867,"Barge Name":"B02","Barge Name Ext":"Ocean Barge 02","Barge Name Full":"02 - Crowley 455 4"},{"Schedule Step":"KOS to Cristobal D03 - M","Project Schedule Activity Name":"KOS to Cristobal D03 - M","Timestamp":"2027-05-26T00:00:00.000","Location":"KOS+3","Latitude":24.04595,"Longitude":-88.217917,"Barge Name":"B02","Barge Name Ext":"Ocean Barge 02","Barge Name Full":"02 - Crowley 455 4"},{"Schedule Step":"KOS to Cristobal D04 - M","Project Schedule Activity Name":"KOS to Cristobal D04 - M","Timestamp":"2027-05-27T00:00:00.000","Location":"KOS+4","Latitude":22.332467,"Longitude":-85.676367,"Barge Name":"B02","Barge Name Ext":"Ocean Barge 02","Barge Name Full":"02 - Crowley 455 4"},{"Schedule Step":"KOS to Cristobal D05 - M","Project Schedule Activity Name":"KOS to Cristobal D05 - M","Timestamp":"2027-05-28T00:00:00.000","Location":"KOS+5","Latitude":19.782517,"Longitude":-84.187917,"Barge Name":"B02","Barge Name Ext":"Ocean Barge 02","Barge Name Full":"02 - Crowley 455 4"},{"Schedule Step":"KOS to Cristobal D06 - M","Project Schedule Activity Name":"KOS to Cristobal D06 - M","Timestamp":"2027-05-29T00:00:00.000","Location":"KOS+6","Latitude":17.235517,"Longitude":-82.726133,"Barge Name":"B02","Barge Name Ext":"Ocean Barge 02","Barge Name Full":"02 - Crowley 455 4"},{"Schedule Step":"KOS to Cristobal D07 - M","Project Schedule Activity Name":"KOS to Cristobal D07 - M","Timestamp":"2027-05-30T00:00:00.000","Location":"KOS+7","Latitude":14.621617,"Longitude":-81.423067,"Barge Name":"B02","Barge Name Ext":"Ocean Barge 02","Barge Name Full":"02 - Crowley 455 4"},{"Schedule Step":"KOS to Cristobal D08 - M","Project Schedule Activity Name":"KOS to Cristobal D08 - M","Timestamp":"2027-05-31T00:00:00.000","Location":"KOS+8","Latitude":11.827417,"Longitude":-80.6297,"Barge Name":"B02","Barge Name Ext":"Ocean Barge 02","Barge Name Full":"02 - Crowley 455 4"},{"Schedule Step":"Arrive Cristobal - M","Project Schedule Activity Name":"Transit: Ingleside - Cristobal","Timestamp":"2027-06-01T00:00:00.000","Location":"Panama Canal","Latitude":9.35298,"Longitude":-79.912448,"Barge Name":"B02","Barge Name Ext":"Ocean Barge 02","Barge Name Full":"02 - Crowley 455 4"},{"Schedule Step":"Enter Canal - M","Project Schedule Activity Name":"RBU \/ Barge Prep & Approval","Timestamp":"2027-06-04T00:00:00.000","Location":"Panama Canal","Latitude":9.191525,"Longitude":-79.900219,"Barge Name":"B02","Barge Name Ext":"Ocean Barge 02","Barge Name Full":"02 - Crowley 455 4"},{"Schedule Step":"Arrive Balboa - M","Project Schedule Activity Name":"Canal Transit - Loaded","Timestamp":"2027-06-06T00:00:00.000","Location":"Panama Canal","Latitude":8.951125,"Longitude":-79.572366,"Barge Name":"B02","Barge Name Ext":"Ocean Barge 02","Barge Name Full":"02 - Crowley 455 4"},{"Schedule Step":"Depart Balboa - M","Project Schedule Activity Name":"Pacific Voyage Prep","Timestamp":"2027-06-07T00:00:00.000","Location":"Panama Canal","Latitude":8.951125,"Longitude":-79.572366,"Barge Name":"B02","Barge Name Ext":"Ocean Barge 02","Barge Name Full":"02 - Crowley 455 4"},{"Schedule Step":"Balboa to LA\/LB D01 - M","Project Schedule Activity Name":"Balboa to LA\/LB D01 - M","Timestamp":"2027-06-08T00:00:00.000","Location":"Balboa+1","Latitude":6.642533,"Longitude":-81.358383,"Barge Name":"B02","Barge Name Ext":"Ocean Barge 02","Barge Name Full":"02 - Crowley 455 4"},{"Schedule Step":"Balboa to LA\/LB D02 - M","Project Schedule Activity Name":"Balboa to LA\/LB D02 - M","Timestamp":"2027-06-09T00:00:00.000","Location":"Balboa+2","Latitude":6.6747,"Longitude":-84.276483,"Barge Name":"B02","Barge Name Ext":"Ocean Barge 02","Barge Name Full":"02 - Crowley 455 4"},{"Schedule Step":"Balboa to LA\/LB D03 - M","Project Schedule Activity Name":"Balboa to LA\/LB D03 - M","Timestamp":"2027-06-10T00:00:00.000","Location":"Balboa+3","Latitude":7.61655,"Longitude":-87.059783,"Barge Name":"B02","Barge Name Ext":"Ocean Barge 02","Barge Name Full":"02 - Crowley 455 4"},{"Schedule Step":"Balboa to LA\/LB D04 - M","Project Schedule Activity Name":"Balboa to LA\/LB D04 - M","Timestamp":"2027-06-11T00:00:00.000","Location":"Balboa+4","Latitude":8.552567,"Longitude":-89.830383,"Barge Name":"B02","Barge Name Ext":"Ocean Barge 02","Barge Name Full":"02 - Crowley 455 4"},{"Schedule Step":"Balboa to LA\/LB D05 - M","Project Schedule Activity Name":"Balboa to LA\/LB D05 - M","Timestamp":"2027-06-12T00:00:00.000","Location":"Balboa+5","Latitude":9.49505,"Longitude":-92.6266,"Barge Name":"B02","Barge Name Ext":"Ocean Barge 02","Barge Name Full":"02 - Crowley 455 4"},{"Schedule Step":"Balboa to LA\/LB D06 - M","Project Schedule Activity Name":"Balboa to LA\/LB D06 - M","Timestamp":"2027-06-13T00:00:00.000","Location":"Balboa+6","Latitude":10.431467,"Longitude":-95.412133,"Barge Name":"B02","Barge Name Ext":"Ocean Barge 02","Barge Name Full":"02 - Crowley 455 4"},{"Schedule Step":"Balboa to LA\/LB D07 - M","Project Schedule Activity Name":"Balboa to LA\/LB D07 - M","Timestamp":"2027-06-14T00:00:00.000","Location":"Balboa+7","Latitude":11.37325,"Longitude":-98.227983,"Barge Name":"B02","Barge Name Ext":"Ocean Barge 02","Barge Name Full":"02 - Crowley 455 4"},{"Schedule Step":"Balboa to LA\/LB D08 - M","Project Schedule Activity Name":"Balboa to LA\/LB D08 - M","Timestamp":"2027-06-15T00:00:00.000","Location":"Balboa+8","Latitude":12.467467,"Longitude":-100.970767,"Barge Name":"B02","Barge Name Ext":"Ocean Barge 02","Barge Name Full":"02 - Crowley 455 4"},{"Schedule Step":"Balboa to LA\/LB D09 - M","Project Schedule Activity Name":"Balboa to LA\/LB D09 - M","Timestamp":"2027-06-16T00:00:00.000","Location":"Balboa+9","Latitude":14.425617,"Longitude":-103.195,"Barge Name":"B02","Barge Name Ext":"Ocean Barge 02","Barge Name Full":"02 - Crowley 455 4"},{"Schedule Step":"Balboa to LA\/LB D10 - M","Project Schedule Activity Name":"Balboa to LA\/LB D10 - M","Timestamp":"2027-06-17T00:00:00.000","Location":"Balboa+10","Latitude":16.369233,"Longitude":-105.4275,"Barge Name":"B02","Barge Name Ext":"Ocean Barge 02","Barge Name Full":"02 - Crowley 455 4"},{"Schedule Step":"Balboa to LA\/LB D11 - M","Project Schedule Activity Name":"Balboa to LA\/LB D11 - M","Timestamp":"2027-06-18T00:00:00.000","Location":"Balboa+11","Latitude":18.313083,"Longitude":-107.676583,"Barge Name":"B02","Barge Name Ext":"Ocean Barge 02","Barge Name Full":"02 - Crowley 455 4"},{"Schedule Step":"Balboa to LA\/LB D12 - M","Project Schedule Activity Name":"Balboa to LA\/LB D12 - M","Timestamp":"2027-06-19T00:00:00.000","Location":"Balboa+12","Latitude":20.291617,"Longitude":-109.918317,"Barge Name":"B02","Barge Name Ext":"Ocean Barge 02","Barge Name Full":"02 - Crowley 455 4"},{"Schedule Step":"Balboa to LA\/LB D13 - M","Project Schedule Activity Name":"Balboa to LA\/LB D13 - M","Timestamp":"2027-06-20T00:00:00.000","Location":"Balboa+13","Latitude":22.28785,"Longitude":-112.174467,"Barge Name":"B02","Barge Name Ext":"Ocean Barge 02","Barge Name Full":"02 - Crowley 455 4"},{"Schedule Step":"Balboa to LA\/LB D14 - M","Project Schedule Activity Name":"Balboa to LA\/LB D14 - M","Timestamp":"2027-06-21T00:00:00.000","Location":"Balboa+14","Latitude":24.287033,"Longitude":-114.4627,"Barge Name":"B02","Barge Name Ext":"Ocean Barge 02","Barge Name Full":"02 - Crowley 455 4"},{"Schedule Step":"Balboa to LA\/LB D15 - M","Project Schedule Activity Name":"Balboa to LA\/LB D15 - M","Timestamp":"2027-06-22T00:00:00.000","Location":"Balboa+15","Latitude":26.92425,"Longitude":-115.7958,"Barge Name":"B02","Barge Name Ext":"Ocean Barge 02","Barge Name Full":"02 - Crowley 455 4"},{"Schedule Step":"Balboa to LA\/LB D16 - M","Project Schedule Activity Name":"Balboa to LA\/LB D16 - M","Timestamp":"2027-06-23T00:00:00.000","Location":"Balboa+16","Latitude":29.563867,"Longitude":-117.138633,"Barge Name":"B02","Barge Name Ext":"Ocean Barge 02","Barge Name Full":"02 - Crowley 455 4"},{"Schedule Step":"Balboa to LA\/LB D17 - M","Project Schedule Activity Name":"Balboa to LA\/LB D17 - M","Timestamp":"2027-06-24T00:00:00.000","Location":"Balboa+17","Latitude":31.6276255,"Longitude":-117.699541,"Barge Name":"B02","Barge Name Ext":"Ocean Barge 02","Barge Name Full":"02 - Crowley 455 4"},{"Schedule Step":"Arrive LA\/LB - M","Project Schedule Activity Name":"Transit: Balboa - Los Angeles","Timestamp":"2027-06-25T00:00:00.000","Location":"Port Stop","Latitude":33.691384,"Longitude":-118.260449,"Barge Name":"B02","Barge Name Ext":"Ocean Barge 02","Barge Name Full":"02 - Crowley 455 4"},{"Schedule Step":"Depart LA\/LB - M","Project Schedule Activity Name":"Port Call Los Angeles","Timestamp":"2027-06-26T00:00:00.000","Location":"Port Stop","Latitude":33.691384,"Longitude":-118.260449,"Barge Name":"B02","Barge Name Ext":"Ocean Barge 02","Barge Name Full":"02 - Crowley 455 4"},{"Schedule Step":"LA\/LB to Kodiak D01 - M","Project Schedule Activity Name":"LA\/LB to Kodiak D01 - M","Timestamp":"2027-06-27T00:00:00.000","Location":"LA\/LB_M+1","Latitude":34.61135,"Longitude":-121.593833,"Barge Name":"B02","Barge Name Ext":"Ocean Barge 02","Barge Name Full":"02 - Crowley 455 4"},{"Schedule Step":"LA\/LB to Kodiak D02 - M","Project Schedule Activity Name":"LA\/LB to Kodiak D02 - M","Timestamp":"2027-06-28T00:00:00.000","Location":"LA\/LB_M+2","Latitude":36.962267,"Longitude":-123.698367,"Barge Name":"B02","Barge Name Ext":"Ocean Barge 02","Barge Name Full":"02 - Crowley 455 4"},{"Schedule Step":"LA\/LB to Kodiak D03 - M","Project Schedule Activity Name":"LA\/LB to Kodiak D03 - M","Timestamp":"2027-06-29T00:00:00.000","Location":"LA\/LB_M+3","Latitude":39.636783,"Longitude":-125.099667,"Barge Name":"B02","Barge Name Ext":"Ocean Barge 02","Barge Name Full":"02 - Crowley 455 4"},{"Schedule Step":"LA\/LB to Kodiak D04 - M","Project Schedule Activity Name":"LA\/LB to Kodiak D04 - M","Timestamp":"2027-06-30T00:00:00.000","Location":"LA\/LB_M+4","Latitude":42.441233,"Longitude":-126.10735,"Barge Name":"B02","Barge Name Ext":"Ocean Barge 02","Barge Name Full":"02 - Crowley 455 4"},{"Schedule Step":"LA\/LB to Kodiak D05 - M","Project Schedule Activity Name":"LA\/LB to Kodiak D05 - M","Timestamp":"2027-07-01T00:00:00.000","Location":"LA\/LB_M+5","Latitude":45.340383,"Longitude":-126.091517,"Barge Name":"B02","Barge Name Ext":"Ocean Barge 02","Barge Name Full":"02 - Crowley 455 4"},{"Schedule Step":"LA\/LB to Kodiak D06 - M","Project Schedule Activity Name":"LA\/LB to Kodiak D06 - M","Timestamp":"2027-07-02T00:00:00.000","Location":"LA\/LB_M+6","Latitude":48.238117,"Longitude":-126.152733,"Barge Name":"B02","Barge Name Ext":"Ocean Barge 02","Barge Name Full":"02 - Crowley 455 4"},{"Schedule Step":"LA\/LB to Kodiak D07 - M","Project Schedule Activity Name":"LA\/LB to Kodiak D07 - M","Timestamp":"2027-07-03T00:00:00.000","Location":"LA\/LB_M+7","Latitude":50.2051,"Longitude":-129.413317,"Barge Name":"B02","Barge Name Ext":"Ocean Barge 02","Barge Name Full":"02 - Crowley 455 4"},{"Schedule Step":"LA\/LB to Kodiak D08 - M","Project Schedule Activity Name":"LA\/LB to Kodiak D08 - M","Timestamp":"2027-07-04T00:00:00.000","Location":"LA\/LB_M+8","Latitude":52.241167,"Longitude":-132.7071,"Barge Name":"B02","Barge Name Ext":"Ocean Barge 02","Barge Name Full":"02 - Crowley 455 4"},{"Schedule Step":"LA\/LB to Kodiak D09 - M","Project Schedule Activity Name":"LA\/LB to Kodiak D09 - M","Timestamp":"2027-07-05T00:00:00.000","Location":"LA\/LB_M+9","Latitude":54.77765,"Longitude":-135.057567,"Barge Name":"B02","Barge Name Ext":"Ocean Barge 02","Barge Name Full":"02 - Crowley 455 4"},{"Schedule Step":"LA\/LB to Kodiak D10 - M","Project Schedule Activity Name":"LA\/LB to Kodiak D10 - M","Timestamp":"2027-07-06T00:00:00.000","Location":"LA\/LB_M+10","Latitude":57.4434,"Longitude":-137.1009,"Barge Name":"B02","Barge Name Ext":"Ocean Barge 02","Barge Name Full":"02 - Crowley 455 4"},{"Schedule Step":"LA\/LB to Kodiak D11 - M","Project Schedule Activity Name":"LA\/LB to Kodiak D11 - M","Timestamp":"2027-07-07T00:00:00.000","Location":"LA\/LB_M+11","Latitude":59.0849,"Longitude":-141.642517,"Barge Name":"B02","Barge Name Ext":"Ocean Barge 02","Barge Name Full":"02 - Crowley 455 4"},{"Schedule Step":"LA\/LB to Kodiak D12 - M","Project Schedule Activity Name":"LA\/LB to Kodiak D12 - M","Timestamp":"2027-07-08T00:00:00.000","Location":"LA\/LB_M+12","Latitude":58.704317,"Longitude":-147.1995,"Barge Name":"B02","Barge Name Ext":"Ocean Barge 02","Barge Name Full":"02 - Crowley 455 4"},{"Schedule Step":"Arrive Kodiak - M","Project Schedule Activity Name":"Transit: Los Angeles - Kodiak","Timestamp":"2027-07-09T00:00:00.000","Location":"Port Stop","Latitude":57.783058,"Longitude":-152.417202,"Barge Name":"B02","Barge Name Ext":"Ocean Barge 02","Barge Name Full":"02 - Crowley 455 4"},{"Schedule Step":"Depart Kodiak - M","Project Schedule Activity Name":"Port Call Kodiak","Timestamp":"2027-07-13T00:00:00.000","Location":"Port Stop","Latitude":57.783058,"Longitude":-152.417202,"Barge Name":"B02","Barge Name Ext":"Ocean Barge 02","Barge Name Full":"02 - Crowley 455 4"},{"Schedule Step":"Kodiak to Oliktok D01 - M","Project Schedule Activity Name":"Kodiak to Oliktok D01 - M","Timestamp":"2027-07-14T00:00:00.000","Location":"Kodiak_M+1","Latitude":55.4363,"Longitude":-155.372817,"Barge Name":"B02","Barge Name Ext":"Ocean Barge 02","Barge Name Full":"02 - Crowley 455 4"},{"Schedule Step":"Kodiak to Oliktok D02 - M","Project Schedule Activity Name":"Kodiak to Oliktok D02 - M","Timestamp":"2027-07-15T00:00:00.000","Location":"Kodiak_M+2","Latitude":54.253167,"Longitude":-159.965683,"Barge Name":"B02","Barge Name Ext":"Ocean Barge 02","Barge Name Full":"02 - Crowley 455 4"},{"Schedule Step":"Kodiak to Oliktok D03 - M","Project Schedule Activity Name":"Kodiak to Oliktok D03 - M","Timestamp":"2027-07-16T00:00:00.000","Location":"Kodiak_M+3","Latitude":54.316433,"Longitude":-164.931783,"Barge Name":"B02","Barge Name Ext":"Ocean Barge 02","Barge Name Full":"02 - Crowley 455 4"},{"Schedule Step":"Kodiak to Oliktok D04 - M","Project Schedule Activity Name":"Kodiak to Oliktok D04 - M","Timestamp":"2027-07-17T00:00:00.000","Location":"Kodiak_M+4","Latitude":56.464033,"Longitude":-168.361917,"Barge Name":"B02","Barge Name Ext":"Ocean Barge 02","Barge Name Full":"02 - Crowley 455 4"},{"Schedule Step":"Kodiak to Oliktok D05 - M","Project Schedule Activity Name":"Kodiak to Oliktok D05 - M","Timestamp":"2027-07-18T00:00:00.000","Location":"Kodiak_M+5","Latitude":59.363883,"Longitude":-168.364083,"Barge Name":"B02","Barge Name Ext":"Ocean Barge 02","Barge Name Full":"02 - Crowley 455 4"},{"Schedule Step":"Kodiak to Oliktok D06 - M","Project Schedule Activity Name":"Kodiak to Oliktok D06 - M","Timestamp":"2027-07-19T00:00:00.000","Location":"Kodiak_M+6","Latitude":62.210817,"Longitude":-167.239983,"Barge Name":"B02","Barge Name Ext":"Ocean Barge 02","Barge Name Full":"02 - Crowley 455 4"},{"Schedule Step":"Kodiak to Oliktok D07 - M","Project Schedule Activity Name":"Kodiak to Oliktok D07 - M","Timestamp":"2027-07-20T00:00:00.000","Location":"Kodiak_M+7","Latitude":65.230432,"Longitude":-166.673828,"Barge Name":"B02","Barge Name Ext":"Ocean Barge 02","Barge Name Full":"02 - Crowley 455 4"},{"Schedule Step":"Kodiak to Oliktok D08 - M","Project Schedule Activity Name":"Kodiak to Oliktok D08 - M","Timestamp":"2027-07-21T00:00:00.000","Location":"Kodiak_M+8","Latitude":67.016189,"Longitude":-167.696643,"Barge Name":"B02","Barge Name Ext":"Ocean Barge 02","Barge Name Full":"02 - Crowley 455 4"},{"Schedule Step":"Kodiak to Oliktok D09 - M","Project Schedule Activity Name":"Kodiak to Oliktok D09 - M","Timestamp":"2027-07-22T00:00:00.000","Location":"Kodiak_M+9","Latitude":68.732779,"Longitude":-167.491304,"Barge Name":"B02","Barge Name Ext":"Ocean Barge 02","Barge Name Full":"02 - Crowley 455 4"},{"Schedule Step":"Kodiak to Oliktok D10 - M","Project Schedule Activity Name":"Kodiak to Oliktok D10 - M","Timestamp":"2027-07-23T00:00:00.000","Location":"Kodiak_M+10","Latitude":70.312416,"Longitude":-164.85421,"Barge Name":"B02","Barge Name Ext":"Ocean Barge 02","Barge Name Full":"02 - Crowley 455 4"},{"Schedule Step":"Kodiak to Oliktok D11 - M","Project Schedule Activity Name":"Kodiak to Oliktok D11 - M","Timestamp":"2027-07-24T00:00:00.000","Location":"Kodiak_M+11","Latitude":71.150501,"Longitude":-160.166224,"Barge Name":"B02","Barge Name Ext":"Ocean Barge 02","Barge Name Full":"02 - Crowley 455 4"},{"Schedule Step":"Kodiak to Oliktok D12 - M","Project Schedule Activity Name":"Kodiak to Oliktok D12 - M","Timestamp":"2027-07-25T00:00:00.000","Location":"Kodiak_M+12","Latitude":71.492177,"Longitude":-154.876693,"Barge Name":"B02","Barge Name Ext":"Ocean Barge 02","Barge Name Full":"02 - Crowley 455 4"},{"Schedule Step":"Arrive Oliktok - M","Project Schedule Activity Name":"Transit: Kodiak - Oliktok","Timestamp":"2027-07-26T00:00:00.000","Location":"North Slope","Latitude":70.577213,"Longitude":-149.981318,"Barge Name":"B02","Barge Name Ext":"Ocean Barge 02","Barge Name Full":"02 - Crowley 455 4"},{"Schedule Step":"Handover to SDT - M","Project Schedule Activity Name":"Adjustment for Offload","Timestamp":"2027-08-05T00:00:00.000","Location":"North Slope","Latitude":70.512316,"Longitude":-149.866678,"Barge Name":"B02","Barge Name Ext":"Ocean Barge 02","Barge Name Full":"02 - Crowley 455 4"},{"Schedule Step":"Handover to Ocean Tug - D","Project Schedule Activity Name":"Offload Operations","Timestamp":"2027-08-07T00:00:00.000","Location":"North Slope","Latitude":70.577213,"Longitude":-149.981318,"Barge Name":"B02","Barge Name Ext":"Ocean Barge 02","Barge Name Full":"02 - Crowley 455 4"},{"Schedule Step":"Depart Oliktok - D","Project Schedule Activity Name":"Offload Operations","Timestamp":"2027-08-07T00:00:00.000","Location":"North Slope","Latitude":70.577213,"Longitude":-149.981318,"Barge Name":"B02","Barge Name Ext":"Ocean Barge 02","Barge Name Full":"02 - Crowley 455 4"},{"Schedule Step":"Oliktok to Kodiak D01 - D","Project Schedule Activity Name":"Oliktok to Kodiak D01 - D","Timestamp":"2027-08-08T00:00:00.000","Location":"Oliktok+1","Latitude":71.492177,"Longitude":-154.876693,"Barge Name":"B02","Barge Name Ext":"Ocean Barge 02","Barge Name Full":"02 - Crowley 455 4"},{"Schedule Step":"Oliktok to Kodiak D02 - D","Project Schedule Activity Name":"Oliktok to Kodiak D02 - D","Timestamp":"2027-08-09T00:00:00.000","Location":"Oliktok+2","Latitude":71.150501,"Longitude":-160.166224,"Barge Name":"B02","Barge Name Ext":"Ocean Barge 02","Barge Name Full":"02 - Crowley 455 4"},{"Schedule Step":"Oliktok to Kodiak D03 - D","Project Schedule Activity Name":"Oliktok to Kodiak D03 - D","Timestamp":"2027-08-10T00:00:00.000","Location":"Oliktok+3","Latitude":70.312416,"Longitude":-164.85421,"Barge Name":"B02","Barge Name Ext":"Ocean Barge 02","Barge Name Full":"02 - Crowley 455 4"},{"Schedule Step":"Oliktok to Kodiak D04 - D","Project Schedule Activity Name":"Oliktok to Kodiak D04 - D","Timestamp":"2027-08-11T00:00:00.000","Location":"Oliktok+4","Latitude":68.732779,"Longitude":-167.491304,"Barge Name":"B02","Barge Name Ext":"Ocean Barge 02","Barge Name Full":"02 - Crowley 455 4"},{"Schedule Step":"Oliktok to Kodiak D05 - D","Project Schedule Activity Name":"Oliktok to Kodiak D05 - D","Timestamp":"2027-08-12T00:00:00.000","Location":"Oliktok+5","Latitude":67.016189,"Longitude":-167.696643,"Barge Name":"B02","Barge Name Ext":"Ocean Barge 02","Barge Name Full":"02 - Crowley 455 4"},{"Schedule Step":"Oliktok to Kodiak D06 - D","Project Schedule Activity Name":"Oliktok to Kodiak D06 - D","Timestamp":"2027-08-13T00:00:00.000","Location":"Oliktok+6","Latitude":64.613678,"Longitude":-167.448124,"Barge Name":"B02","Barge Name Ext":"Ocean Barge 02","Barge Name Full":"02 - Crowley 455 4"},{"Schedule Step":"Oliktok to Kodiak D07 - D","Project Schedule Activity Name":"Oliktok to Kodiak D07 - D","Timestamp":"2027-08-14T00:00:00.000","Location":"Oliktok+7","Latitude":62.210817,"Longitude":-167.239983,"Barge Name":"B02","Barge Name Ext":"Ocean Barge 02","Barge Name Full":"02 - Crowley 455 4"},{"Schedule Step":"Oliktok to Kodiak D08 - D","Project Schedule Activity Name":"Oliktok to Kodiak D08 - D","Timestamp":"2027-08-15T00:00:00.000","Location":"Oliktok+8","Latitude":59.363883,"Longitude":-168.364083,"Barge Name":"B02","Barge Name Ext":"Ocean Barge 02","Barge Name Full":"02 - Crowley 455 4"},{"Schedule Step":"Oliktok to Kodiak D09 - D","Project Schedule Activity Name":"Oliktok to Kodiak D09 - D","Timestamp":"2027-08-16T00:00:00.000","Location":"Oliktok+9","Latitude":56.464033,"Longitude":-168.361917,"Barge Name":"B02","Barge Name Ext":"Ocean Barge 02","Barge Name Full":"02 - Crowley 455 4"},{"Schedule Step":"Oliktok to Kodiak D10 - D","Project Schedule Activity Name":"Oliktok to Kodiak D10 - D","Timestamp":"2027-08-17T00:00:00.000","Location":"Oliktok+10","Latitude":54.316433,"Longitude":-164.931783,"Barge Name":"B02","Barge Name Ext":"Ocean Barge 02","Barge Name Full":"02 - Crowley 455 4"},{"Schedule Step":"Arrive Kodiak - D","Project Schedule Activity Name":"Transit: Oliktok - Kodiak","Timestamp":"2027-08-18T00:00:00.000","Location":"Port Stop","Latitude":57.783058,"Longitude":-152.417202,"Barge Name":"B02","Barge Name Ext":"Ocean Barge 02","Barge Name Full":"02 - Crowley 455 4"},{"Schedule Step":"Depart Kodiak - D","Project Schedule Activity Name":"Standby Kodiak","Timestamp":"2027-08-22T00:00:00.000","Location":"Port Stop","Latitude":57.783058,"Longitude":-152.417202,"Barge Name":"B02","Barge Name Ext":"Ocean Barge 02","Barge Name Full":"02 - Crowley 455 4"},{"Schedule Step":"Kodiak to LA\/LB D01 - D","Project Schedule Activity Name":"Kodiak to LA\/LB D01 - D","Timestamp":"2027-08-23T00:00:00.000","Location":"Kodiak_D+1","Latitude":58.704317,"Longitude":-147.1995,"Barge Name":"B02","Barge Name Ext":"Ocean Barge 02","Barge Name Full":"02 - Crowley 455 4"},{"Schedule Step":"Kodiak to LA\/LB D02 - D","Project Schedule Activity Name":"Kodiak to LA\/LB D02 - D","Timestamp":"2027-08-24T00:00:00.000","Location":"Kodiak_D+2","Latitude":59.0849,"Longitude":-141.642517,"Barge Name":"B02","Barge Name Ext":"Ocean Barge 02","Barge Name Full":"02 - Crowley 455 4"},{"Schedule Step":"Kodiak to LA\/LB D03 - D","Project Schedule Activity Name":"Kodiak to LA\/LB D03 - D","Timestamp":"2027-08-25T00:00:00.000","Location":"Kodiak_D+3","Latitude":57.4434,"Longitude":-137.1009,"Barge Name":"B02","Barge Name Ext":"Ocean Barge 02","Barge Name Full":"02 - Crowley 455 4"},{"Schedule Step":"Kodiak to LA\/LB D04 - D","Project Schedule Activity Name":"Kodiak to LA\/LB D04 - D","Timestamp":"2027-08-26T00:00:00.000","Location":"Kodiak_D+4","Latitude":54.77765,"Longitude":-135.057567,"Barge Name":"B02","Barge Name Ext":"Ocean Barge 02","Barge Name Full":"02 - Crowley 455 4"},{"Schedule Step":"Kodiak to LA\/LB D05 - D","Project Schedule Activity Name":"Kodiak to LA\/LB D05 - D","Timestamp":"2027-08-27T00:00:00.000","Location":"Kodiak_D+5","Latitude":52.241167,"Longitude":-132.7071,"Barge Name":"B02","Barge Name Ext":"Ocean Barge 02","Barge Name Full":"02 - Crowley 455 4"},{"Schedule Step":"Kodiak to LA\/LB D06 - D","Project Schedule Activity Name":"Kodiak to LA\/LB D06 - D","Timestamp":"2027-08-28T00:00:00.000","Location":"Kodiak_D+6","Latitude":50.2051,"Longitude":-129.413317,"Barge Name":"B02","Barge Name Ext":"Ocean Barge 02","Barge Name Full":"02 - Crowley 455 4"},{"Schedule Step":"Kodiak to LA\/LB D07 - D","Project Schedule Activity Name":"Kodiak to LA\/LB D07 - D","Timestamp":"2027-08-29T00:00:00.000","Location":"Kodiak_D+7","Latitude":48.238117,"Longitude":-126.152733,"Barge Name":"B02","Barge Name Ext":"Ocean Barge 02","Barge Name Full":"02 - Crowley 455 4"},{"Schedule Step":"Kodiak to LA\/LB D08 - D","Project Schedule Activity Name":"Kodiak to LA\/LB D08 - D","Timestamp":"2027-08-30T00:00:00.000","Location":"Kodiak_D+8","Latitude":45.340383,"Longitude":-126.091517,"Barge Name":"B02","Barge Name Ext":"Ocean Barge 02","Barge Name Full":"02 - Crowley 455 4"},{"Schedule Step":"Kodiak to LA\/LB D09 - D","Project Schedule Activity Name":"Kodiak to LA\/LB D09 - D","Timestamp":"2027-08-31T00:00:00.000","Location":"Kodiak_D+9","Latitude":42.441233,"Longitude":-126.10735,"Barge Name":"B02","Barge Name Ext":"Ocean Barge 02","Barge Name Full":"02 - Crowley 455 4"},{"Schedule Step":"Kodiak to LA\/LB D10 - D","Project Schedule Activity Name":"Kodiak to LA\/LB D10 - D","Timestamp":"2027-09-01T00:00:00.000","Location":"Kodiak_D+10","Latitude":39.636783,"Longitude":-125.099667,"Barge Name":"B02","Barge Name Ext":"Ocean Barge 02","Barge Name Full":"02 - Crowley 455 4"},{"Schedule Step":"Kodiak to LA\/LB D11 - D","Project Schedule Activity Name":"Kodiak to LA\/LB D11 - D","Timestamp":"2027-09-02T00:00:00.000","Location":"Kodiak_D+11","Latitude":36.962267,"Longitude":-123.698367,"Barge Name":"B02","Barge Name Ext":"Ocean Barge 02","Barge Name Full":"02 - Crowley 455 4"},{"Schedule Step":"Arrive LA\/LB - D","Project Schedule Activity Name":"Transit: Kodiak - Los Angeles","Timestamp":"2027-09-03T00:00:00.000","Location":"Port Stop","Latitude":33.691384,"Longitude":-118.260449,"Barge Name":"B02","Barge Name Ext":"Ocean Barge 02","Barge Name Full":"02 - Crowley 455 4"},{"Schedule Step":"Depart LA\/LB - D","Project Schedule Activity Name":"Demob Port Call Los Angeles","Timestamp":"2027-09-04T00:00:00.000","Location":"Port Stop","Latitude":33.691384,"Longitude":-118.260449,"Barge Name":"B02","Barge Name Ext":"Ocean Barge 02","Barge Name Full":"02 - Crowley 455 4"},{"Schedule Step":"LA\/LB to Balboa D01 - D","Project Schedule Activity Name":"LA\/LB to Balboa D01 - D","Timestamp":"2027-09-05T00:00:00.000","Location":"LA\/LB_D+1","Latitude":29.563867,"Longitude":-117.138633,"Barge Name":"B02","Barge Name Ext":"Ocean Barge 02","Barge Name Full":"02 - Crowley 455 4"},{"Schedule Step":"LA\/LB to Balboa D02 - D","Project Schedule Activity Name":"LA\/LB to Balboa D02 - D","Timestamp":"2027-09-06T00:00:00.000","Location":"LA\/LB_D+2","Latitude":26.92425,"Longitude":-115.7958,"Barge Name":"B02","Barge Name Ext":"Ocean Barge 02","Barge Name Full":"02 - Crowley 455 4"},{"Schedule Step":"LA\/LB to Balboa D03 - D","Project Schedule Activity Name":"LA\/LB to Balboa D03 - D","Timestamp":"2027-09-07T00:00:00.000","Location":"LA\/LB_D+3","Latitude":24.287033,"Longitude":-114.4627,"Barge Name":"B02","Barge Name Ext":"Ocean Barge 02","Barge Name Full":"02 - Crowley 455 4"},{"Schedule Step":"LA\/LB to Balboa D04 - D","Project Schedule Activity Name":"LA\/LB to Balboa D04 - D","Timestamp":"2027-09-08T00:00:00.000","Location":"LA\/LB_D+4","Latitude":22.28785,"Longitude":-112.174467,"Barge Name":"B02","Barge Name Ext":"Ocean Barge 02","Barge Name Full":"02 - Crowley 455 4"},{"Schedule Step":"LA\/LB to Balboa D05 - D","Project Schedule Activity Name":"LA\/LB to Balboa D05 - D","Timestamp":"2027-09-09T00:00:00.000","Location":"LA\/LB_D+5","Latitude":20.291617,"Longitude":-109.918317,"Barge Name":"B02","Barge Name Ext":"Ocean Barge 02","Barge Name Full":"02 - Crowley 455 4"},{"Schedule Step":"LA\/LB to Balboa D06 - D","Project Schedule Activity Name":"LA\/LB to Balboa D06 - D","Timestamp":"2027-09-10T00:00:00.000","Location":"LA\/LB_D+6","Latitude":18.313083,"Longitude":-107.676583,"Barge Name":"B02","Barge Name Ext":"Ocean Barge 02","Barge Name Full":"02 - Crowley 455 4"},{"Schedule Step":"LA\/LB to Balboa D07 - D","Project Schedule Activity Name":"LA\/LB to Balboa D07 - D","Timestamp":"2027-09-11T00:00:00.000","Location":"LA\/LB_D+7","Latitude":16.369233,"Longitude":-105.4275,"Barge Name":"B02","Barge Name Ext":"Ocean Barge 02","Barge Name Full":"02 - Crowley 455 4"},{"Schedule Step":"LA\/LB to Balboa D08 - D","Project Schedule Activity Name":"LA\/LB to Balboa D08 - D","Timestamp":"2027-09-12T00:00:00.000","Location":"LA\/LB_D+8","Latitude":14.425617,"Longitude":-103.195,"Barge Name":"B02","Barge Name Ext":"Ocean Barge 02","Barge Name Full":"02 - Crowley 455 4"},{"Schedule Step":"LA\/LB to Balboa D09 - D","Project Schedule Activity Name":"LA\/LB to Balboa D09 - D","Timestamp":"2027-09-13T00:00:00.000","Location":"LA\/LB_D+9","Latitude":12.467467,"Longitude":-100.970767,"Barge Name":"B02","Barge Name Ext":"Ocean Barge 02","Barge Name Full":"02 - Crowley 455 4"},{"Schedule Step":"LA\/LB to Balboa D10 - D","Project Schedule Activity Name":"LA\/LB to Balboa D10 - D","Timestamp":"2027-09-14T00:00:00.000","Location":"LA\/LB_D+10","Latitude":11.37325,"Longitude":-98.227983,"Barge Name":"B02","Barge Name Ext":"Ocean Barge 02","Barge Name Full":"02 - Crowley 455 4"},{"Schedule Step":"LA\/LB to Balboa D11 - D","Project Schedule Activity Name":"LA\/LB to Balboa D11 - D","Timestamp":"2027-09-15T00:00:00.000","Location":"LA\/LB_D+11","Latitude":10.431467,"Longitude":-95.412133,"Barge Name":"B02","Barge Name Ext":"Ocean Barge 02","Barge Name Full":"02 - Crowley 455 4"},{"Schedule Step":"LA\/LB to Balboa D12 - D","Project Schedule Activity Name":"LA\/LB to Balboa D12 - D","Timestamp":"2027-09-16T00:00:00.000","Location":"LA\/LB_D+12","Latitude":9.49505,"Longitude":-92.6266,"Barge Name":"B02","Barge Name Ext":"Ocean Barge 02","Barge Name Full":"02 - Crowley 455 4"},{"Schedule Step":"LA\/LB to Balboa D13 - D","Project Schedule Activity Name":"LA\/LB to Balboa D13 - D","Timestamp":"2027-09-17T00:00:00.000","Location":"LA\/LB_D+13","Latitude":8.552567,"Longitude":-89.830383,"Barge Name":"B02","Barge Name Ext":"Ocean Barge 02","Barge Name Full":"02 - Crowley 455 4"},{"Schedule Step":"LA\/LB to Balboa D14 - D","Project Schedule Activity Name":"LA\/LB to Balboa D14 - D","Timestamp":"2027-09-18T00:00:00.000","Location":"LA\/LB_D+14","Latitude":7.61655,"Longitude":-87.059783,"Barge Name":"B02","Barge Name Ext":"Ocean Barge 02","Barge Name Full":"02 - Crowley 455 4"},{"Schedule Step":"LA\/LB to Balboa D15 - D","Project Schedule Activity Name":"LA\/LB to Balboa D15 - D","Timestamp":"2027-09-19T00:00:00.000","Location":"LA\/LB_D+15","Latitude":6.6747,"Longitude":-84.276483,"Barge Name":"B02","Barge Name Ext":"Ocean Barge 02","Barge Name Full":"02 - Crowley 455 4"},{"Schedule Step":"Arrive Balboa - D","Project Schedule Activity Name":"Transit: Los Angeles - Balboa","Timestamp":"2027-09-20T00:00:00.000","Location":"Panama Canal","Latitude":8.951125,"Longitude":-79.572366,"Barge Name":"B02","Barge Name Ext":"Ocean Barge 02","Barge Name Full":"02 - Crowley 455 4"},{"Schedule Step":"Enter Canal - D","Project Schedule Activity Name":"Barge Prep & Approval - Lite","Timestamp":"2027-09-22T00:00:00.000","Location":"Panama Canal","Latitude":9.191525,"Longitude":-79.900219,"Barge Name":"B02","Barge Name Ext":"Ocean Barge 02","Barge Name Full":"02 - Crowley 455 4"},{"Schedule Step":"Arrive Cristobal - D","Project Schedule Activity Name":"Canal Transit - Lite","Timestamp":"2027-09-26T00:00:00.000","Location":"Panama Canal","Latitude":9.35298,"Longitude":-79.912448,"Barge Name":"B02","Barge Name Ext":"Ocean Barge 02","Barge Name Full":"02 - Crowley 455 4"},{"Schedule Step":"Depart Cristobal - D","Project Schedule Activity Name":"Canal Transit - Lite","Timestamp":"2027-09-26T00:00:00.000","Location":"Panama Canal","Latitude":9.35298,"Longitude":-79.912448,"Barge Name":"B02","Barge Name Ext":"Ocean Barge 02","Barge Name Full":"02 - Crowley 455 4"},{"Schedule Step":"Cristobal to SY D01 - D","Project Schedule Activity Name":"Cristobal to SY D01 - D","Timestamp":"2027-09-27T00:00:00.000","Location":"Cristobal+1","Latitude":11.827417,"Longitude":-80.6297,"Barge Name":"B02","Barge Name Ext":"Ocean Barge 02","Barge Name Full":"02 - Crowley 455 4"},{"Schedule Step":"Cristobal to SY D02 - D","Project Schedule Activity Name":"Cristobal to SY D02 - D","Timestamp":"2027-09-28T00:00:00.000","Location":"Cristobal+2","Latitude":14.621617,"Longitude":-81.423067,"Barge Name":"B02","Barge Name Ext":"Ocean Barge 02","Barge Name Full":"02 - Crowley 455 4"},{"Schedule Step":"Cristobal to SY D03 - D","Project Schedule Activity Name":"Cristobal to SY D03 - D","Timestamp":"2027-09-29T00:00:00.000","Location":"Cristobal+3","Latitude":17.235517,"Longitude":-82.726133,"Barge Name":"B02","Barge Name Ext":"Ocean Barge 02","Barge Name Full":"02 - Crowley 455 4"},{"Schedule Step":"Cristobal to SY D04 - D","Project Schedule Activity Name":"Cristobal to SY D04 - D","Timestamp":"2027-09-30T00:00:00.000","Location":"Cristobal+4","Latitude":19.782517,"Longitude":-84.187917,"Barge Name":"B02","Barge Name Ext":"Ocean Barge 02","Barge Name Full":"02 - Crowley 455 4"},{"Schedule Step":"Cristobal to SY D05 - D","Project Schedule Activity Name":"Cristobal to SY D05 - D","Timestamp":"2027-10-01T00:00:00.000","Location":"Cristobal+5","Latitude":22.332467,"Longitude":-85.676367,"Barge Name":"B02","Barge Name Ext":"Ocean Barge 02","Barge Name Full":"02 - Crowley 455 4"},{"Schedule Step":"Cristobal to SY D06 - D","Project Schedule Activity Name":"Cristobal to SY D06 - D","Timestamp":"2027-10-02T00:00:00.000","Location":"Cristobal+6","Latitude":24.2666225,"Longitude":-87.6866605,"Barge Name":"B02","Barge Name Ext":"Ocean Barge 02","Barge Name Full":"02 - Crowley 455 4"},{"Schedule Step":"Cristobal to SY D07 - D","Project Schedule Activity Name":"Cristobal to SY D07 - D","Timestamp":"2027-10-03T00:00:00.000","Location":"Cristobal+7","Latitude":26.200778,"Longitude":-89.696954,"Barge Name":"B02","Barge Name Ext":"Ocean Barge 02","Barge Name Full":"02 - Crowley 455 4"},{"Schedule Step":"Arrive Shipyard - D","Project Schedule Activity Name":"Arrive at Demob Shipyard","Timestamp":"2027-10-04T00:00:00.000","Location":"Shipyard","Latitude":27.85375,"Longitude":-97.23764,"Barge Name":"B02","Barge Name Ext":"Ocean Barge 02","Barge Name Full":"02 - Crowley 455 4"},{"Schedule Step":"Depart Shipyard - D","Project Schedule Activity Name":"Barge Clean-Off","Timestamp":"2027-10-14T00:00:00.000","Location":"Shipyard","Latitude":27.85375,"Longitude":-97.23764,"Barge Name":"B02","Barge Name Ext":"Ocean Barge 02","Barge Name Full":"02 - Crowley 455 4"},{"Schedule Step":"Arrive Home Port - D","Project Schedule Activity Name":"Transit: Demob Shipyard - Home Port","Timestamp":"2027-10-15T00:00:00.000","Location":"Home Port","Latitude":30.074883,"Longitude":-93.722685,"Barge Name":"B02","Barge Name Ext":"Ocean Barge 02","Barge Name Full":"02 - Crowley 455 4"},{"Schedule Step":"Off-Hire","Project Schedule Activity Name":"Barge Off-hire Survey","Timestamp":"2027-10-16T00:00:00.000","Location":null,"Latitude":0.0,"Longitude":0.0,"Barge Name":"B02","Barge Name Ext":"Ocean Barge 02","Barge Name Full":"02 - Crowley 455 4"},{"Schedule Step":"Barge On-Hire","Project Schedule Activity Name":"Barge On-hire Survey","Timestamp":"2027-05-01T00:00:00.000","Location":"Home Port","Latitude":30.074883,"Longitude":-93.722685,"Barge Name":"B03","Barge Name Ext":"Ocean Barge 03","Barge Name Full":"03 - Crowley 455 7"},{"Schedule Step":"Home to KOS D01 - M","Project Schedule Activity Name":"Home to KOS D01 - M","Timestamp":"2027-05-02T00:00:00.000","Location":"Home+1","Latitude":29.049757,"Longitude":-93.14979,"Barge Name":"B03","Barge Name Ext":"Ocean Barge 03","Barge Name Full":"03 - Crowley 455 7"},{"Schedule Step":"Home to KOS D02 - M","Project Schedule Activity Name":"Home to KOS D02 - M","Timestamp":"2027-05-03T00:00:00.000","Location":"Home+2","Latitude":28.451753,"Longitude":-95.193715,"Barge Name":"B03","Barge Name Ext":"Ocean Barge 03","Barge Name Full":"03 - Crowley 455 7"},{"Schedule Step":"Arrive KOS - M","Project Schedule Activity Name":"Barge Transit: Home Port - Ingleside","Timestamp":"2027-05-04T00:00:00.000","Location":"KOS","Latitude":27.85375,"Longitude":-97.23764,"Barge Name":"B03","Barge Name Ext":"Ocean Barge 03","Barge Name Full":"03 - Crowley 455 7"},{"Schedule Step":"Depart KOS - M","Project Schedule Activity Name":"Departure Readiness Checklist","Timestamp":"2027-05-26T00:00:00.000","Location":"KOS","Latitude":27.85375,"Longitude":-97.23764,"Barge Name":"B03","Barge Name Ext":"Ocean Barge 03","Barge Name Full":"03 - Crowley 455 7"},{"Schedule Step":"KOS to Cristobal D01 - M","Project Schedule Activity Name":"KOS to Cristobal D01 - M","Timestamp":"2027-05-27T00:00:00.000","Location":"KOS+1","Latitude":26.487967,"Longitude":-94.04255,"Barge Name":"B03","Barge Name Ext":"Ocean Barge 03","Barge Name Full":"03 - Crowley 455 7"},{"Schedule Step":"KOS to Cristobal D02 - M","Project Schedule Activity Name":"KOS to Cristobal D02 - M","Timestamp":"2027-05-28T00:00:00.000","Location":"KOS+2","Latitude":25.2701,"Longitude":-91.113867,"Barge Name":"B03","Barge Name Ext":"Ocean Barge 03","Barge Name Full":"03 - Crowley 455 7"},{"Schedule Step":"KOS to Cristobal D03 - M","Project Schedule Activity Name":"KOS to Cristobal D03 - M","Timestamp":"2027-05-29T00:00:00.000","Location":"KOS+3","Latitude":24.04595,"Longitude":-88.217917,"Barge Name":"B03","Barge Name Ext":"Ocean Barge 03","Barge Name Full":"03 - Crowley 455 7"},{"Schedule Step":"KOS to Cristobal D04 - M","Project Schedule Activity Name":"KOS to Cristobal D04 - M","Timestamp":"2027-05-30T00:00:00.000","Location":"KOS+4","Latitude":22.332467,"Longitude":-85.676367,"Barge Name":"B03","Barge Name Ext":"Ocean Barge 03","Barge Name Full":"03 - Crowley 455 7"},{"Schedule Step":"KOS to Cristobal D05 - M","Project Schedule Activity Name":"KOS to Cristobal D05 - M","Timestamp":"2027-05-31T00:00:00.000","Location":"KOS+5","Latitude":19.782517,"Longitude":-84.187917,"Barge Name":"B03","Barge Name Ext":"Ocean Barge 03","Barge Name Full":"03 - Crowley 455 7"},{"Schedule Step":"KOS to Cristobal D06 - M","Project Schedule Activity Name":"KOS to Cristobal D06 - M","Timestamp":"2027-06-01T00:00:00.000","Location":"KOS+6","Latitude":17.235517,"Longitude":-82.726133,"Barge Name":"B03","Barge Name Ext":"Ocean Barge 03","Barge Name Full":"03 - Crowley 455 7"},{"Schedule Step":"KOS to Cristobal D07 - M","Project Schedule Activity Name":"KOS to Cristobal D07 - M","Timestamp":"2027-06-02T00:00:00.000","Location":"KOS+7","Latitude":14.621617,"Longitude":-81.423067,"Barge Name":"B03","Barge Name Ext":"Ocean Barge 03","Barge Name Full":"03 - Crowley 455 7"},{"Schedule Step":"KOS to Cristobal D08 - M","Project Schedule Activity Name":"KOS to Cristobal D08 - M","Timestamp":"2027-06-03T00:00:00.000","Location":"KOS+8","Latitude":11.827417,"Longitude":-80.6297,"Barge Name":"B03","Barge Name Ext":"Ocean Barge 03","Barge Name Full":"03 - Crowley 455 7"},{"Schedule Step":"Arrive Cristobal - M","Project Schedule Activity Name":"Transit: Ingleside - Cristobal","Timestamp":"2027-06-04T00:00:00.000","Location":"Panama Canal","Latitude":9.35298,"Longitude":-79.912448,"Barge Name":"B03","Barge Name Ext":"Ocean Barge 03","Barge Name Full":"03 - Crowley 455 7"},{"Schedule Step":"Enter Canal - M","Project Schedule Activity Name":"RBU \/ Barge Prep & Approval","Timestamp":"2027-06-07T00:00:00.000","Location":"Panama Canal","Latitude":9.191525,"Longitude":-79.900219,"Barge Name":"B03","Barge Name Ext":"Ocean Barge 03","Barge Name Full":"03 - Crowley 455 7"},{"Schedule Step":"Arrive Balboa - M","Project Schedule Activity Name":"Canal Transit - Loaded","Timestamp":"2027-06-09T00:00:00.000","Location":"Panama Canal","Latitude":8.951125,"Longitude":-79.572366,"Barge Name":"B03","Barge Name Ext":"Ocean Barge 03","Barge Name Full":"03 - Crowley 455 7"},{"Schedule Step":"Depart Balboa - M","Project Schedule Activity Name":"Pacific Voyage Prep","Timestamp":"2027-06-10T00:00:00.000","Location":"Panama Canal","Latitude":8.951125,"Longitude":-79.572366,"Barge Name":"B03","Barge Name Ext":"Ocean Barge 03","Barge Name Full":"03 - Crowley 455 7"},{"Schedule Step":"Balboa to LA\/LB D01 - M","Project Schedule Activity Name":"Balboa to LA\/LB D01 - M","Timestamp":"2027-06-11T00:00:00.000","Location":"Balboa+1","Latitude":6.642533,"Longitude":-81.358383,"Barge Name":"B03","Barge Name Ext":"Ocean Barge 03","Barge Name Full":"03 - Crowley 455 7"},{"Schedule Step":"Balboa to LA\/LB D02 - M","Project Schedule Activity Name":"Balboa to LA\/LB D02 - M","Timestamp":"2027-06-12T00:00:00.000","Location":"Balboa+2","Latitude":6.6747,"Longitude":-84.276483,"Barge Name":"B03","Barge Name Ext":"Ocean Barge 03","Barge Name Full":"03 - Crowley 455 7"},{"Schedule Step":"Balboa to LA\/LB D03 - M","Project Schedule Activity Name":"Balboa to LA\/LB D03 - M","Timestamp":"2027-06-13T00:00:00.000","Location":"Balboa+3","Latitude":7.61655,"Longitude":-87.059783,"Barge Name":"B03","Barge Name Ext":"Ocean Barge 03","Barge Name Full":"03 - Crowley 455 7"},{"Schedule Step":"Balboa to LA\/LB D04 - M","Project Schedule Activity Name":"Balboa to LA\/LB D04 - M","Timestamp":"2027-06-14T00:00:00.000","Location":"Balboa+4","Latitude":8.552567,"Longitude":-89.830383,"Barge Name":"B03","Barge Name Ext":"Ocean Barge 03","Barge Name Full":"03 - Crowley 455 7"},{"Schedule Step":"Balboa to LA\/LB D05 - M","Project Schedule Activity Name":"Balboa to LA\/LB D05 - M","Timestamp":"2027-06-15T00:00:00.000","Location":"Balboa+5","Latitude":9.49505,"Longitude":-92.6266,"Barge Name":"B03","Barge Name Ext":"Ocean Barge 03","Barge Name Full":"03 - Crowley 455 7"},{"Schedule Step":"Balboa to LA\/LB D06 - M","Project Schedule Activity Name":"Balboa to LA\/LB D06 - M","Timestamp":"2027-06-16T00:00:00.000","Location":"Balboa+6","Latitude":10.431467,"Longitude":-95.412133,"Barge Name":"B03","Barge Name Ext":"Ocean Barge 03","Barge Name Full":"03 - Crowley 455 7"},{"Schedule Step":"Balboa to LA\/LB D07 - M","Project Schedule Activity Name":"Balboa to LA\/LB D07 - M","Timestamp":"2027-06-17T00:00:00.000","Location":"Balboa+7","Latitude":11.37325,"Longitude":-98.227983,"Barge Name":"B03","Barge Name Ext":"Ocean Barge 03","Barge Name Full":"03 - Crowley 455 7"},{"Schedule Step":"Balboa to LA\/LB D08 - M","Project Schedule Activity Name":"Balboa to LA\/LB D08 - M","Timestamp":"2027-06-18T00:00:00.000","Location":"Balboa+8","Latitude":12.467467,"Longitude":-100.970767,"Barge Name":"B03","Barge Name Ext":"Ocean Barge 03","Barge Name Full":"03 - Crowley 455 7"},{"Schedule Step":"Balboa to LA\/LB D09 - M","Project Schedule Activity Name":"Balboa to LA\/LB D09 - M","Timestamp":"2027-06-19T00:00:00.000","Location":"Balboa+9","Latitude":14.425617,"Longitude":-103.195,"Barge Name":"B03","Barge Name Ext":"Ocean Barge 03","Barge Name Full":"03 - Crowley 455 7"},{"Schedule Step":"Balboa to LA\/LB D10 - M","Project Schedule Activity Name":"Balboa to LA\/LB D10 - M","Timestamp":"2027-06-20T00:00:00.000","Location":"Balboa+10","Latitude":16.369233,"Longitude":-105.4275,"Barge Name":"B03","Barge Name Ext":"Ocean Barge 03","Barge Name Full":"03 - Crowley 455 7"},{"Schedule Step":"Balboa to LA\/LB D11 - M","Project Schedule Activity Name":"Balboa to LA\/LB D11 - M","Timestamp":"2027-06-21T00:00:00.000","Location":"Balboa+11","Latitude":18.313083,"Longitude":-107.676583,"Barge Name":"B03","Barge Name Ext":"Ocean Barge 03","Barge Name Full":"03 - Crowley 455 7"},{"Schedule Step":"Balboa to LA\/LB D12 - M","Project Schedule Activity Name":"Balboa to LA\/LB D12 - M","Timestamp":"2027-06-22T00:00:00.000","Location":"Balboa+12","Latitude":20.291617,"Longitude":-109.918317,"Barge Name":"B03","Barge Name Ext":"Ocean Barge 03","Barge Name Full":"03 - Crowley 455 7"},{"Schedule Step":"Balboa to LA\/LB D13 - M","Project Schedule Activity Name":"Balboa to LA\/LB D13 - M","Timestamp":"2027-06-23T00:00:00.000","Location":"Balboa+13","Latitude":22.28785,"Longitude":-112.174467,"Barge Name":"B03","Barge Name Ext":"Ocean Barge 03","Barge Name Full":"03 - Crowley 455 7"},{"Schedule Step":"Balboa to LA\/LB D14 - M","Project Schedule Activity Name":"Balboa to LA\/LB D14 - M","Timestamp":"2027-06-24T00:00:00.000","Location":"Balboa+14","Latitude":24.287033,"Longitude":-114.4627,"Barge Name":"B03","Barge Name Ext":"Ocean Barge 03","Barge Name Full":"03 - Crowley 455 7"},{"Schedule Step":"Balboa to LA\/LB D15 - M","Project Schedule Activity Name":"Balboa to LA\/LB D15 - M","Timestamp":"2027-06-25T00:00:00.000","Location":"Balboa+15","Latitude":26.92425,"Longitude":-115.7958,"Barge Name":"B03","Barge Name Ext":"Ocean Barge 03","Barge Name Full":"03 - Crowley 455 7"},{"Schedule Step":"Balboa to LA\/LB D16 - M","Project Schedule Activity Name":"Balboa to LA\/LB D16 - M","Timestamp":"2027-06-26T00:00:00.000","Location":"Balboa+16","Latitude":29.563867,"Longitude":-117.138633,"Barge Name":"B03","Barge Name Ext":"Ocean Barge 03","Barge Name Full":"03 - Crowley 455 7"},{"Schedule Step":"Balboa to LA\/LB D17 - M","Project Schedule Activity Name":"Balboa to LA\/LB D17 - M","Timestamp":"2027-06-27T00:00:00.000","Location":"Balboa+17","Latitude":31.6276255,"Longitude":-117.699541,"Barge Name":"B03","Barge Name Ext":"Ocean Barge 03","Barge Name Full":"03 - Crowley 455 7"},{"Schedule Step":"Arrive LA\/LB - M","Project Schedule Activity Name":"Transit: Balboa - Los Angeles","Timestamp":"2027-06-28T00:00:00.000","Location":"Port Stop","Latitude":33.691384,"Longitude":-118.260449,"Barge Name":"B03","Barge Name Ext":"Ocean Barge 03","Barge Name Full":"03 - Crowley 455 7"},{"Schedule Step":"Depart LA\/LB - M","Project Schedule Activity Name":"Port Call Los Angeles","Timestamp":"2027-06-29T00:00:00.000","Location":"Port Stop","Latitude":33.691384,"Longitude":-118.260449,"Barge Name":"B03","Barge Name Ext":"Ocean Barge 03","Barge Name Full":"03 - Crowley 455 7"},{"Schedule Step":"LA\/LB to Kodiak D01 - M","Project Schedule Activity Name":"LA\/LB to Kodiak D01 - M","Timestamp":"2027-06-30T00:00:00.000","Location":"LA\/LB_M+1","Latitude":34.61135,"Longitude":-121.593833,"Barge Name":"B03","Barge Name Ext":"Ocean Barge 03","Barge Name Full":"03 - Crowley 455 7"},{"Schedule Step":"LA\/LB to Kodiak D02 - M","Project Schedule Activity Name":"LA\/LB to Kodiak D02 - M","Timestamp":"2027-07-01T00:00:00.000","Location":"LA\/LB_M+2","Latitude":36.962267,"Longitude":-123.698367,"Barge Name":"B03","Barge Name Ext":"Ocean Barge 03","Barge Name Full":"03 - Crowley 455 7"},{"Schedule Step":"LA\/LB to Kodiak D03 - M","Project Schedule Activity Name":"LA\/LB to Kodiak D03 - M","Timestamp":"2027-07-02T00:00:00.000","Location":"LA\/LB_M+3","Latitude":39.636783,"Longitude":-125.099667,"Barge Name":"B03","Barge Name Ext":"Ocean Barge 03","Barge Name Full":"03 - Crowley 455 7"},{"Schedule Step":"LA\/LB to Kodiak D04 - M","Project Schedule Activity Name":"LA\/LB to Kodiak D04 - M","Timestamp":"2027-07-03T00:00:00.000","Location":"LA\/LB_M+4","Latitude":42.441233,"Longitude":-126.10735,"Barge Name":"B03","Barge Name Ext":"Ocean Barge 03","Barge Name Full":"03 - Crowley 455 7"},{"Schedule Step":"LA\/LB to Kodiak D05 - M","Project Schedule Activity Name":"LA\/LB to Kodiak D05 - M","Timestamp":"2027-07-04T00:00:00.000","Location":"LA\/LB_M+5","Latitude":45.340383,"Longitude":-126.091517,"Barge Name":"B03","Barge Name Ext":"Ocean Barge 03","Barge Name Full":"03 - Crowley 455 7"},{"Schedule Step":"LA\/LB to Kodiak D06 - M","Project Schedule Activity Name":"LA\/LB to Kodiak D06 - M","Timestamp":"2027-07-05T00:00:00.000","Location":"LA\/LB_M+6","Latitude":48.238117,"Longitude":-126.152733,"Barge Name":"B03","Barge Name Ext":"Ocean Barge 03","Barge Name Full":"03 - Crowley 455 7"},{"Schedule Step":"LA\/LB to Kodiak D07 - M","Project Schedule Activity Name":"LA\/LB to Kodiak D07 - M","Timestamp":"2027-07-06T00:00:00.000","Location":"LA\/LB_M+7","Latitude":50.2051,"Longitude":-129.413317,"Barge Name":"B03","Barge Name Ext":"Ocean Barge 03","Barge Name Full":"03 - Crowley 455 7"},{"Schedule Step":"LA\/LB to Kodiak D08 - M","Project Schedule Activity Name":"LA\/LB to Kodiak D08 - M","Timestamp":"2027-07-07T00:00:00.000","Location":"LA\/LB_M+8","Latitude":52.241167,"Longitude":-132.7071,"Barge Name":"B03","Barge Name Ext":"Ocean Barge 03","Barge Name Full":"03 - Crowley 455 7"},{"Schedule Step":"LA\/LB to Kodiak D09 - M","Project Schedule Activity Name":"LA\/LB to Kodiak D09 - M","Timestamp":"2027-07-08T00:00:00.000","Location":"LA\/LB_M+9","Latitude":54.77765,"Longitude":-135.057567,"Barge Name":"B03","Barge Name Ext":"Ocean Barge 03","Barge Name Full":"03 - Crowley 455 7"},{"Schedule Step":"LA\/LB to Kodiak D10 - M","Project Schedule Activity Name":"LA\/LB to Kodiak D10 - M","Timestamp":"2027-07-09T00:00:00.000","Location":"LA\/LB_M+10","Latitude":57.4434,"Longitude":-137.1009,"Barge Name":"B03","Barge Name Ext":"Ocean Barge 03","Barge Name Full":"03 - Crowley 455 7"},{"Schedule Step":"LA\/LB to Kodiak D11 - M","Project Schedule Activity Name":"LA\/LB to Kodiak D11 - M","Timestamp":"2027-07-10T00:00:00.000","Location":"LA\/LB_M+11","Latitude":59.0849,"Longitude":-141.642517,"Barge Name":"B03","Barge Name Ext":"Ocean Barge 03","Barge Name Full":"03 - Crowley 455 7"},{"Schedule Step":"LA\/LB to Kodiak D12 - M","Project Schedule Activity Name":"LA\/LB to Kodiak D12 - M","Timestamp":"2027-07-11T00:00:00.000","Location":"LA\/LB_M+12","Latitude":58.704317,"Longitude":-147.1995,"Barge Name":"B03","Barge Name Ext":"Ocean Barge 03","Barge Name Full":"03 - Crowley 455 7"},{"Schedule Step":"Arrive Kodiak - M","Project Schedule Activity Name":"Transit: Los Angeles - Kodiak","Timestamp":"2027-07-12T00:00:00.000","Location":"Port Stop","Latitude":57.783058,"Longitude":-152.417202,"Barge Name":"B03","Barge Name Ext":"Ocean Barge 03","Barge Name Full":"03 - Crowley 455 7"},{"Schedule Step":"Depart Kodiak - M","Project Schedule Activity Name":"Port Call Kodiak","Timestamp":"2027-07-16T00:00:00.000","Location":"Port Stop","Latitude":57.783058,"Longitude":-152.417202,"Barge Name":"B03","Barge Name Ext":"Ocean Barge 03","Barge Name Full":"03 - Crowley 455 7"},{"Schedule Step":"Kodiak to Oliktok D01 - M","Project Schedule Activity Name":"Kodiak to Oliktok D01 - M","Timestamp":"2027-07-17T00:00:00.000","Location":"Kodiak_M+1","Latitude":55.4363,"Longitude":-155.372817,"Barge Name":"B03","Barge Name Ext":"Ocean Barge 03","Barge Name Full":"03 - Crowley 455 7"},{"Schedule Step":"Kodiak to Oliktok D02 - M","Project Schedule Activity Name":"Kodiak to Oliktok D02 - M","Timestamp":"2027-07-18T00:00:00.000","Location":"Kodiak_M+2","Latitude":54.253167,"Longitude":-159.965683,"Barge Name":"B03","Barge Name Ext":"Ocean Barge 03","Barge Name Full":"03 - Crowley 455 7"},{"Schedule Step":"Kodiak to Oliktok D03 - M","Project Schedule Activity Name":"Kodiak to Oliktok D03 - M","Timestamp":"2027-07-19T00:00:00.000","Location":"Kodiak_M+3","Latitude":54.316433,"Longitude":-164.931783,"Barge Name":"B03","Barge Name Ext":"Ocean Barge 03","Barge Name Full":"03 - Crowley 455 7"},{"Schedule Step":"Kodiak to Oliktok D04 - M","Project Schedule Activity Name":"Kodiak to Oliktok D04 - M","Timestamp":"2027-07-20T00:00:00.000","Location":"Kodiak_M+4","Latitude":56.464033,"Longitude":-168.361917,"Barge Name":"B03","Barge Name Ext":"Ocean Barge 03","Barge Name Full":"03 - Crowley 455 7"},{"Schedule Step":"Kodiak to Oliktok D05 - M","Project Schedule Activity Name":"Kodiak to Oliktok D05 - M","Timestamp":"2027-07-21T00:00:00.000","Location":"Kodiak_M+5","Latitude":59.363883,"Longitude":-168.364083,"Barge Name":"B03","Barge Name Ext":"Ocean Barge 03","Barge Name Full":"03 - Crowley 455 7"},{"Schedule Step":"Kodiak to Oliktok D06 - M","Project Schedule Activity Name":"Kodiak to Oliktok D06 - M","Timestamp":"2027-07-22T00:00:00.000","Location":"Kodiak_M+6","Latitude":62.210817,"Longitude":-167.239983,"Barge Name":"B03","Barge Name Ext":"Ocean Barge 03","Barge Name Full":"03 - Crowley 455 7"},{"Schedule Step":"Kodiak to Oliktok D07 - M","Project Schedule Activity Name":"Kodiak to Oliktok D07 - M","Timestamp":"2027-07-23T00:00:00.000","Location":"Kodiak_M+7","Latitude":65.230432,"Longitude":-166.673828,"Barge Name":"B03","Barge Name Ext":"Ocean Barge 03","Barge Name Full":"03 - Crowley 455 7"},{"Schedule Step":"Kodiak to Oliktok D08 - M","Project Schedule Activity Name":"Kodiak to Oliktok D08 - M","Timestamp":"2027-07-24T00:00:00.000","Location":"Kodiak_M+8","Latitude":67.016189,"Longitude":-167.696643,"Barge Name":"B03","Barge Name Ext":"Ocean Barge 03","Barge Name Full":"03 - Crowley 455 7"},{"Schedule Step":"Kodiak to Oliktok D09 - M","Project Schedule Activity Name":"Kodiak to Oliktok D09 - M","Timestamp":"2027-07-25T00:00:00.000","Location":"Kodiak_M+9","Latitude":68.732779,"Longitude":-167.491304,"Barge Name":"B03","Barge Name Ext":"Ocean Barge 03","Barge Name Full":"03 - Crowley 455 7"},{"Schedule Step":"Kodiak to Oliktok D10 - M","Project Schedule Activity Name":"Kodiak to Oliktok D10 - M","Timestamp":"2027-07-26T00:00:00.000","Location":"Kodiak_M+10","Latitude":70.312416,"Longitude":-164.85421,"Barge Name":"B03","Barge Name Ext":"Ocean Barge 03","Barge Name Full":"03 - Crowley 455 7"},{"Schedule Step":"Kodiak to Oliktok D11 - M","Project Schedule Activity Name":"Kodiak to Oliktok D11 - M","Timestamp":"2027-07-27T00:00:00.000","Location":"Kodiak_M+11","Latitude":71.150501,"Longitude":-160.166224,"Barge Name":"B03","Barge Name Ext":"Ocean Barge 03","Barge Name Full":"03 - Crowley 455 7"},{"Schedule Step":"Kodiak to Oliktok D12 - M","Project Schedule Activity Name":"Kodiak to Oliktok D12 - M","Timestamp":"2027-07-28T00:00:00.000","Location":"Kodiak_M+12","Latitude":71.492177,"Longitude":-154.876693,"Barge Name":"B03","Barge Name Ext":"Ocean Barge 03","Barge Name Full":"03 - Crowley 455 7"},{"Schedule Step":"Arrive Oliktok - M","Project Schedule Activity Name":"Transit: Kodiak - Oliktok","Timestamp":"2027-07-29T00:00:00.000","Location":"North Slope","Latitude":70.577213,"Longitude":-149.981318,"Barge Name":"B03","Barge Name Ext":"Ocean Barge 03","Barge Name Full":"03 - Crowley 455 7"},{"Schedule Step":"Handover to SDT - M","Project Schedule Activity Name":"Adjustment for Offload","Timestamp":"2027-08-06T00:00:00.000","Location":"North Slope","Latitude":70.512316,"Longitude":-149.866678,"Barge Name":"B03","Barge Name Ext":"Ocean Barge 03","Barge Name Full":"03 - Crowley 455 7"},{"Schedule Step":"Handover to Ocean Tug - D","Project Schedule Activity Name":"Offload Operations","Timestamp":"2027-08-08T00:00:00.000","Location":"North Slope","Latitude":70.577213,"Longitude":-149.981318,"Barge Name":"B03","Barge Name Ext":"Ocean Barge 03","Barge Name Full":"03 - Crowley 455 7"},{"Schedule Step":"Depart Oliktok - D","Project Schedule Activity Name":"Offload Operations","Timestamp":"2027-08-08T00:00:00.000","Location":"North Slope","Latitude":70.577213,"Longitude":-149.981318,"Barge Name":"B03","Barge Name Ext":"Ocean Barge 03","Barge Name Full":"03 - Crowley 455 7"},{"Schedule Step":"Oliktok to Kodiak D01 - D","Project Schedule Activity Name":"Oliktok to Kodiak D01 - D","Timestamp":"2027-08-09T00:00:00.000","Location":"Oliktok+1","Latitude":71.492177,"Longitude":-154.876693,"Barge Name":"B03","Barge Name Ext":"Ocean Barge 03","Barge Name Full":"03 - Crowley 455 7"},{"Schedule Step":"Oliktok to Kodiak D02 - D","Project Schedule Activity Name":"Oliktok to Kodiak D02 - D","Timestamp":"2027-08-10T00:00:00.000","Location":"Oliktok+2","Latitude":71.150501,"Longitude":-160.166224,"Barge Name":"B03","Barge Name Ext":"Ocean Barge 03","Barge Name Full":"03 - Crowley 455 7"},{"Schedule Step":"Oliktok to Kodiak D03 - D","Project Schedule Activity Name":"Oliktok to Kodiak D03 - D","Timestamp":"2027-08-11T00:00:00.000","Location":"Oliktok+3","Latitude":70.312416,"Longitude":-164.85421,"Barge Name":"B03","Barge Name Ext":"Ocean Barge 03","Barge Name Full":"03 - Crowley 455 7"},{"Schedule Step":"Oliktok to Kodiak D04 - D","Project Schedule Activity Name":"Oliktok to Kodiak D04 - D","Timestamp":"2027-08-12T00:00:00.000","Location":"Oliktok+4","Latitude":68.732779,"Longitude":-167.491304,"Barge Name":"B03","Barge Name Ext":"Ocean Barge 03","Barge Name Full":"03 - Crowley 455 7"},{"Schedule Step":"Oliktok to Kodiak D05 - D","Project Schedule Activity Name":"Oliktok to Kodiak D05 - D","Timestamp":"2027-08-13T00:00:00.000","Location":"Oliktok+5","Latitude":67.016189,"Longitude":-167.696643,"Barge Name":"B03","Barge Name Ext":"Ocean Barge 03","Barge Name Full":"03 - Crowley 455 7"},{"Schedule Step":"Oliktok to Kodiak D06 - D","Project Schedule Activity Name":"Oliktok to Kodiak D06 - D","Timestamp":"2027-08-14T00:00:00.000","Location":"Oliktok+6","Latitude":64.613678,"Longitude":-167.448124,"Barge Name":"B03","Barge Name Ext":"Ocean Barge 03","Barge Name Full":"03 - Crowley 455 7"},{"Schedule Step":"Oliktok to Kodiak D07 - D","Project Schedule Activity Name":"Oliktok to Kodiak D07 - D","Timestamp":"2027-08-15T00:00:00.000","Location":"Oliktok+7","Latitude":62.210817,"Longitude":-167.239983,"Barge Name":"B03","Barge Name Ext":"Ocean Barge 03","Barge Name Full":"03 - Crowley 455 7"},{"Schedule Step":"Oliktok to Kodiak D08 - D","Project Schedule Activity Name":"Oliktok to Kodiak D08 - D","Timestamp":"2027-08-16T00:00:00.000","Location":"Oliktok+8","Latitude":59.363883,"Longitude":-168.364083,"Barge Name":"B03","Barge Name Ext":"Ocean Barge 03","Barge Name Full":"03 - Crowley 455 7"},{"Schedule Step":"Oliktok to Kodiak D09 - D","Project Schedule Activity Name":"Oliktok to Kodiak D09 - D","Timestamp":"2027-08-17T00:00:00.000","Location":"Oliktok+9","Latitude":56.464033,"Longitude":-168.361917,"Barge Name":"B03","Barge Name Ext":"Ocean Barge 03","Barge Name Full":"03 - Crowley 455 7"},{"Schedule Step":"Oliktok to Kodiak D10 - D","Project Schedule Activity Name":"Oliktok to Kodiak D10 - D","Timestamp":"2027-08-18T00:00:00.000","Location":"Oliktok+10","Latitude":54.316433,"Longitude":-164.931783,"Barge Name":"B03","Barge Name Ext":"Ocean Barge 03","Barge Name Full":"03 - Crowley 455 7"},{"Schedule Step":"Arrive Kodiak - D","Project Schedule Activity Name":"Transit: Oliktok - Kodiak","Timestamp":"2027-08-19T00:00:00.000","Location":"Port Stop","Latitude":57.783058,"Longitude":-152.417202,"Barge Name":"B03","Barge Name Ext":"Ocean Barge 03","Barge Name Full":"03 - Crowley 455 7"},{"Schedule Step":"Depart Kodiak - D","Project Schedule Activity Name":"Standby Kodiak","Timestamp":"2027-08-25T00:00:00.000","Location":"Port Stop","Latitude":57.783058,"Longitude":-152.417202,"Barge Name":"B03","Barge Name Ext":"Ocean Barge 03","Barge Name Full":"03 - Crowley 455 7"},{"Schedule Step":"Kodiak to LA\/LB D01 - D","Project Schedule Activity Name":"Kodiak to LA\/LB D01 - D","Timestamp":"2027-08-26T00:00:00.000","Location":"Kodiak_D+1","Latitude":58.704317,"Longitude":-147.1995,"Barge Name":"B03","Barge Name Ext":"Ocean Barge 03","Barge Name Full":"03 - Crowley 455 7"},{"Schedule Step":"Kodiak to LA\/LB D02 - D","Project Schedule Activity Name":"Kodiak to LA\/LB D02 - D","Timestamp":"2027-08-27T00:00:00.000","Location":"Kodiak_D+2","Latitude":59.0849,"Longitude":-141.642517,"Barge Name":"B03","Barge Name Ext":"Ocean Barge 03","Barge Name Full":"03 - Crowley 455 7"},{"Schedule Step":"Kodiak to LA\/LB D03 - D","Project Schedule Activity Name":"Kodiak to LA\/LB D03 - D","Timestamp":"2027-08-28T00:00:00.000","Location":"Kodiak_D+3","Latitude":57.4434,"Longitude":-137.1009,"Barge Name":"B03","Barge Name Ext":"Ocean Barge 03","Barge Name Full":"03 - Crowley 455 7"},{"Schedule Step":"Kodiak to LA\/LB D04 - D","Project Schedule Activity Name":"Kodiak to LA\/LB D04 - D","Timestamp":"2027-08-29T00:00:00.000","Location":"Kodiak_D+4","Latitude":54.77765,"Longitude":-135.057567,"Barge Name":"B03","Barge Name Ext":"Ocean Barge 03","Barge Name Full":"03 - Crowley 455 7"},{"Schedule Step":"Kodiak to LA\/LB D05 - D","Project Schedule Activity Name":"Kodiak to LA\/LB D05 - D","Timestamp":"2027-08-30T00:00:00.000","Location":"Kodiak_D+5","Latitude":52.241167,"Longitude":-132.7071,"Barge Name":"B03","Barge Name Ext":"Ocean Barge 03","Barge Name Full":"03 - Crowley 455 7"},{"Schedule Step":"Kodiak to LA\/LB D06 - D","Project Schedule Activity Name":"Kodiak to LA\/LB D06 - D","Timestamp":"2027-08-31T00:00:00.000","Location":"Kodiak_D+6","Latitude":50.2051,"Longitude":-129.413317,"Barge Name":"B03","Barge Name Ext":"Ocean Barge 03","Barge Name Full":"03 - Crowley 455 7"},{"Schedule Step":"Kodiak to LA\/LB D07 - D","Project Schedule Activity Name":"Kodiak to LA\/LB D07 - D","Timestamp":"2027-09-01T00:00:00.000","Location":"Kodiak_D+7","Latitude":48.238117,"Longitude":-126.152733,"Barge Name":"B03","Barge Name Ext":"Ocean Barge 03","Barge Name Full":"03 - Crowley 455 7"},{"Schedule Step":"Kodiak to LA\/LB D08 - D","Project Schedule Activity Name":"Kodiak to LA\/LB D08 - D","Timestamp":"2027-09-02T00:00:00.000","Location":"Kodiak_D+8","Latitude":45.340383,"Longitude":-126.091517,"Barge Name":"B03","Barge Name Ext":"Ocean Barge 03","Barge Name Full":"03 - Crowley 455 7"},{"Schedule Step":"Kodiak to LA\/LB D09 - D","Project Schedule Activity Name":"Kodiak to LA\/LB D09 - D","Timestamp":"2027-09-03T00:00:00.000","Location":"Kodiak_D+9","Latitude":42.441233,"Longitude":-126.10735,"Barge Name":"B03","Barge Name Ext":"Ocean Barge 03","Barge Name Full":"03 - Crowley 455 7"},{"Schedule Step":"Kodiak to LA\/LB D10 - D","Project Schedule Activity Name":"Kodiak to LA\/LB D10 - D","Timestamp":"2027-09-04T00:00:00.000","Location":"Kodiak_D+10","Latitude":39.636783,"Longitude":-125.099667,"Barge Name":"B03","Barge Name Ext":"Ocean Barge 03","Barge Name Full":"03 - Crowley 455 7"},{"Schedule Step":"Kodiak to LA\/LB D11 - D","Project Schedule Activity Name":"Kodiak to LA\/LB D11 - D","Timestamp":"2027-09-05T00:00:00.000","Location":"Kodiak_D+11","Latitude":36.962267,"Longitude":-123.698367,"Barge Name":"B03","Barge Name Ext":"Ocean Barge 03","Barge Name Full":"03 - Crowley 455 7"},{"Schedule Step":"Arrive LA\/LB - D","Project Schedule Activity Name":"Transit: Kodiak - Los Angeles","Timestamp":"2027-09-06T00:00:00.000","Location":"Port Stop","Latitude":33.691384,"Longitude":-118.260449,"Barge Name":"B03","Barge Name Ext":"Ocean Barge 03","Barge Name Full":"03 - Crowley 455 7"},